[{"source":"foursquare","id":"55877ae9498ee57015ef8d23","name":"10Below Ice Cream","lat":40.713935,"lng":-73.998641,"address":"10 Mott St (Mott Street And Chatham Square), New York, NY 10013","rating":"","url":"http://www.10belowicecream.com","froyo":false,"chain":false},{"source":"foursquare","id":"5081ee4ae4b082d3b0987883","name":"127 Junior's Cheesecake/Blue Marble Ice Cream","lat":40.68433427930721,"lng":-73.97697960643174,"address":"Barclays Center, Brooklyn, NY 11217","rating":"","url":"","froyo":false,"chain":false},{"source":"yelp","id":"15-flavors-east-bronx","name":"15 Flavors","lat":40.8487748,"lng":-73.8547168,"address":"1046 Morris Park Ave, East Bronx, NY 10461","rating":3,"url":"http://www.yelp.com/biz/15-flavors-east-bronx","froyo":false,"chain":false},{"source":"yelp","id":"15-flavors-new-york","name":"15 Flavors","lat":40.8466751,"lng":-73.832048,"address":"1763 Crosby Ave, New York, NY 10461","rating":4,"url":"http://www.yelp.com/biz/15-flavors-new-york","froyo":false,"chain":false},{"source":"yelp","id":"15-flavors-kingsbridge","name":"15 Flavors","lat":40.8793484,"lng":-73.9056159,"address":"223A W 231 St, Kingsbridge, NY 10463","rating":3,"url":"http://www.yelp.com/biz/15-flavors-kingsbridge","froyo":false,"chain":false},{"source":"nyc-inspections","id":"15flavors3815etremontave","name":"15 FLAVORS","lat":40.8246536,"lng":-73.82034039999999,"address":"3815 E TREMONT AVE, NY, NY 10465","rating":"2","url":"","froyo":false,"chain":false},{"source":"yelp","id":"16-handles-new-york-17","name":"16 Handles","lat":40.762390717864,"lng":-73.9600172638893,"address":"1161 1st Ave, New York, NY 10065","rating":3.5,"url":"http://www.yelp.com/biz/16-handles-new-york-17","froyo":false,"chain":true},{"source":"yelp","id":"16-handles-brooklyn","name":"16 Handles","lat":40.6247188506406,"lng":-73.9645018251315,"address":"1351 Coney Island Ave, Brooklyn, NY 11230","rating":3.5,"url":"http://www.yelp.com/biz/16-handles-brooklyn","froyo":false,"chain":true},{"source":"yelp","id":"16-handles-new-york-11","name":"16 Handles","lat":40.7183418,"lng":-73.9582901,"address":"139 N 7 St, New York, NY 11211","rating":3.5,"url":"http://www.yelp.com/biz/16-handles-new-york-11","froyo":false,"chain":true},{"source":"yelp","id":"16-handles-new-york-2","name":"16 Handles","lat":40.7294517,"lng":-73.9870716,"address":"153 2nd Ave, New York, NY 10003","rating":4,"url":"http://www.yelp.com/biz/16-handles-new-york-2","froyo":false,"chain":true},{"source":"yelp","id":"16-handles-new-york-8","name":"16 Handles","lat":40.7428436279297,"lng":-73.9998779296875,"address":"178 8th Ave, New York, NY 10011","rating":4,"url":"http://www.yelp.com/biz/16-handles-new-york-8","froyo":false,"chain":true},{"source":"yelp","id":"16-handles-new-york-15","name":"16 Handles","lat":40.7308737947548,"lng":-74.0026318428525,"address":"245 Bleecker St, New York, NY 10014","rating":4,"url":"http://www.yelp.com/biz/16-handles-new-york-15","froyo":false,"chain":true},{"source":"yelp","id":"16-handles-new-york-6","name":"16 Handles","lat":40.79586,"lng":-73.970207,"address":"2600 Broadway, New York, NY 10025","rating":4,"url":"http://www.yelp.com/biz/16-handles-new-york-6","froyo":false,"chain":true},{"source":"yelp","id":"16-handles-new-york-4","name":"16 Handles","lat":40.7807278,"lng":-73.9800649,"address":"325 Amsterdam Ave, New York, NY 10023","rating":4,"url":"http://www.yelp.com/biz/16-handles-new-york-4","froyo":false,"chain":true},{"source":"foursquare","id":"4f356964e4b051869fea488c","name":"16 Handles","lat":40.76454526993123,"lng":-73.91633984722516,"address":"37-07 30th Ave (at 37th St.), Astoria, NY 11103","rating":9,"url":"http://www.16handles.com","froyo":false,"chain":true},{"source":"yelp","id":"16-handles-elmhurst","name":"16 Handles","lat":40.73415979743,"lng":-73.8716384768486,"address":"90-15 Queens Blvd, Elmhurst, NY 11373","rating":3.5,"url":"http://www.yelp.com/biz/16-handles-elmhurst","froyo":false,"chain":true},{"source":"yelp","id":"16-handles-new-york-3","name":"16 Handles","lat":40.775033,"lng":-73.9540341,"address":"Upper East Side,1569 2nd Ave, New York, NY 10028","rating":4,"url":"http://www.yelp.com/biz/16-handles-new-york-3","froyo":false,"chain":true},{"source":"foursquare","id":"51ae6418498e37d7402c44fa","name":"224 Nathans/Carvel/Beers of the World","lat":40.829661,"lng":-73.926481,"address":"Yankee Stadium (E 161 St & River Ave), Bronx, NY 10451","rating":"","url":"","froyo":false,"chain":true},{"source":"yelp","id":"2-bubbles-elmhurst","name":"2 Bubbles","lat":40.743,"lng":-73.8833466,"address":"8120 Broadway, Elmhurst, NY 11373","rating":5,"url":"http://www.yelp.com/biz/2-bubbles-elmhurst","froyo":false,"chain":false},{"source":"nyc-inspections","id":"2chill14104rockawayboulevard","name":"2 CHILL","lat":40.673943,"lng":-73.799688,"address":"141-04 ROCKAWAY BOULEVARD, NY, NY 11436","rating":"4","url":"","froyo":false,"chain":false},{"source":"yelp","id":"32-degrees-froyo-astoria","name":"32 Degrees Froyo","lat":40.7704018358941,"lng":-73.9108657836914,"address":"2242 31st St, Astoria, NY 11105","rating":4,"url":"http://www.yelp.com/biz/32-degrees-froyo-astoria","froyo":true,"chain":false},{"source":"yelp","id":"4-squared-flavors-sunnyside-2","name":"4 Squared Flavors","lat":40.7418987880387,"lng":-73.9194230362773,"address":"45-12 Greenpoint Ave, Sunnyside, NY 11104","rating":4,"url":"http://www.yelp.com/biz/4-squared-flavors-sunnyside-2","froyo":false,"chain":false},{"source":"foursquare","id":"4b8ea740f964a520b42e33e3","name":"99 Cent Fresh Pizza Villa Cafe","lat":40.75818727890453,"lng":-73.99276784301703,"address":"569 9th Ave (at W 41st St.), New York, NY 10036","rating":7,"url":"","froyo":false,"chain":false},{"source":"foursquare","id":"51aa2c1b498eedaf1296ae05","name":"A.B. Biagi","lat":40.72310923017284,"lng":-73.99399021502371,"address":"235 Elizabeth St (Prince and Houston), New York, NY 10012","rating":8.4,"url":"http://abbiagi.com","froyo":false,"chain":false},{"source":"foursquare","id":"51abeca6498e120eb16070cb","name":"Aj's Gourmet Italian Ices","lat":40.636188346898855,"lng":-74.02588964209974,"address":"375 Bay Ridge Ave (Between 3rd Ave & Ridge Blvd.), Brooklyn, NY 11220","rating":"","url":"","froyo":false,"chain":false},{"source":"foursquare","id":"553fcb59498e6cc1b6ded0fb","name":"A La Mode Shoppe","lat":40.75722707837693,"lng":-73.96411160796117,"address":"360 E 55th St (1st and 2nd Ave), New York, NY 10022","rating":"","url":"http://alamodeshoppe.com","froyo":false,"chain":false},{"source":"foursquare","id":"550f4cae498e0e905134e4c1","name":"Alchemy Creamery","lat":40.72106762461162,"lng":-73.96259631875498,"address":"90 Kent Ave, Brooklyn, NY 11249","rating":"","url":"http://lchemycreamery.com","froyo":false,"chain":false},{"source":"foursquare","id":"55107f1b498e980820632c73","name":"Alchemy Creamery","lat":40.69443569856639,"lng":-73.99978637695312,"address":"Pier 5, Brooklyn, NY 11201","rating":"","url":"","froyo":false,"chain":false},{"source":"foursquare","id":"550f4ab2498efa2b06e7715a","name":"Alchemy Creamery on Governors Island","lat":40.68996153022321,"lng":-74.01976346969604,"address":"517 Clayton Rd, New York, NY 10004","rating":"","url":"","froyo":false,"chain":false},{"source":"manual","id":"alleva-dairy-new-york","name":"Alleva Dairy","lat":40.719415,"lng":-73.9971318,"address":"188 Grand Street","rating":"","url":"","froyo":false,"chain":false},{"source":"foursquare","id":"4dbca083815439392fa34651","name":"Alphabet Scoop","lat":40.72766864,"lng":-73.98007154205436,"address":"545 E. 11th Street, New York, NY 10009","rating":7.1,"url":"http://www.alphabetscoopicecream.com","froyo":false,"chain":false},{"source":"foursquare","id":"53adaa59498eb151220d1a93","name":"Amorino","lat":40.74225647768071,"lng":-74.00049218487156,"address":"162 8th Ave (at 18th St), New York, NY 10011","rating":8.3,"url":"http://amorino.com/us/","froyo":false,"chain":false},{"source":"foursquare","id":"4de43bb11520b8ceaac8b906","name":"Amorino Gelato","lat":40.73282332706532,"lng":-73.99385248335616,"address":"60 University Pl (at E 10th St.), New York, NY 10003","rating":9.1,"url":"http://amorino.com","froyo":false,"chain":false},{"source":"manual","id":"ample-hills-bbp","name":"Ample Hills","lat":40.694582,"lng":-74.00064,"address":"8 Joralemon Street Pier 5","rating":"","url":"http://amplehills.com/","froyo":false,"chain":false},{"source":"manual","id":"ample-hills-riis-park","name":"Ample Hills","lat":40.5663668,"lng":-73.8702749,"address":"157 Rockaway Beach Blvd, Queens, NY 11694","rating":"","url":"http://amplehills.com/","froyo":false,"chain":false},{"source":"foursquare","id":"53c057e7498e1923339d49c8","name":"Ample Hills Creamery","lat":40.678929388131436,"lng":-73.98729801177979,"address":"305 Nevins St (at Union St), Brooklyn, NY 11215","rating":9.5,"url":"http://www.amplehills.com","froyo":false,"chain":false},{"source":"manual","id":"ample-hills-vanderbilt","name":"Ample Hills","lat":40.6786003,"lng":-73.9681538,"address":"623 Vanderbilt Ave., Brooklyn, NY 11238","rating":"","url":"http://amplehills.com/","froyo":false,"chain":false},{"source":"foursquare","id":"517abbd7e4b0de63518cb59e","name":"Ample Hills Creamery - Brooklyn Bridge Park Pier 5","lat":40.69450863012195,"lng":-74.00049218487156,"address":"334 Furman St, Pier 5 (Furman St), Brooklyn, NY 11201","rating":9.1,"url":"http://www.amplehills.com","froyo":false,"chain":false},{"source":"foursquare","id":"548bab05498e7c9be4f7843e","name":"Ample Hills Creamery Pop Up","lat":40.76229154887415,"lng":-73.99699733176632,"address":"600 11th Ave, New York, NY 10036","rating":8.7,"url":"","froyo":false,"chain":false},{"source":"foursquare","id":"4d8f74f66174a093519bdee3","name":"Amsterdam Diner","lat":40.784696,"lng":-73.977189,"address":"447 Amsterdam Ave (btwn 81st & 82nd St.), New York, NY 10024","rating":5.5,"url":"http://www.amsterdamdinernyc.com","froyo":false,"chain":false},{"source":"yelp","id":"anopoli-ice-cream-parlor-and-family-restaurant-brooklyn","name":"Anopoli Ice Cream Parlor and Family Restaurant","lat":40.635727,"lng":-74.026505,"address":"6920 3rd Ave, Brooklyn, NY 11209","rating":3.5,"url":"http://www.yelp.com/biz/anopoli-ice-cream-parlor-and-family-restaurant-brooklyn","froyo":false,"chain":false},{"source":"foursquare","id":"54fb7376498e227b8cf1316b","name":"Antica Gelateria Gentile","lat":40.7116767866156,"lng":-73.96396237546189,"address":"109 S 5th St (Bedford & Berry), Brooklyn, NY 11249","rating":8.1,"url":"http://gelateriagentile.it","froyo":false,"chain":false},{"source":"yelp","id":"arbuz-brooklyn","name":"Arbuz","lat":40.5857303738594,"lng":-73.951813057065,"address":"1706 Sheepshead Bay Rd, Brooklyn, NY 11235","rating":4,"url":"http://www.yelp.com/biz/arbuz-brooklyn","froyo":false,"chain":false},{"source":"yelp","id":"arnor-crepes-and-bubble-tea-bensonhurst","name":"Arnor Crepes & Bubble Tea","lat":40.6104488072271,"lng":-73.9839301862624,"address":"1425 West 10th St, Bensonhurst, NY 11204","rating":4.5,"url":"http://www.yelp.com/biz/arnor-crepes-and-bubble-tea-bensonhurst","froyo":false,"chain":false},{"source":"foursquare","id":"4c3ba7fe1a1cd13a25bdb60d","name":"Artisanal Creamery","lat":40.701493,"lng":-73.887061,"address":"66-40 Myrtle Ave, Glendale, NY 11385","rating":"","url":"","froyo":false,"chain":false},{"source":"foursquare","id":"43e603adf964a520fe2e1fe3","name":"Artisanal Fromagerie & Bistro","lat":40.746135271984336,"lng":-73.98279190063477,"address":"2 Park Ave (at 32nd St), New York, NY 10016","rating":8.7,"url":"http://www.artisanalbistro.com","froyo":false,"chain":false},{"source":"yelp","id":"astoria-coffee-astoria","name":"Astoria Coffee","lat":40.767076,"lng":-73.9225158,"address":"3004 30th St, Astoria, NY 11102","rating":4.5,"url":"http://www.yelp.com/biz/astoria-coffee-astoria","froyo":false,"chain":false},{"source":"yelp","id":"azucar-ice-cream-brooklyn","name":"Azucar Ice Cream","lat":40.7087901234627,"lng":-73.9545824378729,"address":"334 S 4th St, Brooklyn, NY 11211","rating":5,"url":"http://www.yelp.com/biz/azucar-ice-cream-brooklyn","froyo":false,"chain":false},{"source":"foursquare","id":"4c68848e6b25e21ecc011a2f","name":"BagelBerry","lat":40.766711558392885,"lng":-73.92097288009772,"address":"31-13 30th Ave (at 31st St), Astoria, NY 11102","rating":6.3,"url":"http://bagelberry.com","froyo":false,"chain":false},{"source":"yelp","id":"bakery-la-casa-de-los-antojitos-jackson-heights","name":"Bakery La Casa de Los Antojitos","lat":40.749435,"lng":-73.8848299,"address":"81-08 37th Ave, Jackson Heights, NY 11372","rating":4.5,"url":"http://www.yelp.com/biz/bakery-la-casa-de-los-antojitos-jackson-heights","froyo":false,"chain":false},{"source":"yelp","id":"baldies-new-york","name":"Baldies","lat":40.7154034,"lng":-73.9893633,"address":"Hester St Fair,Essex St, New York, NY 10002","rating":5,"url":"http://www.yelp.com/biz/baldies-new-york","froyo":false,"chain":false},{"source":"manual","id":"dunkin-donuts-baskin-robbins-new-york-4","name":"Baskin Robbins","lat":40.7440699,"lng":-73.9766489,"address":"601 2nd Avenue","rating":"","url":"","froyo":false,"chain":true},{"source":"manual","id":"dunkin-donuts-baskin-robbins-new-york-14","name":"Baskin Robbins","lat":40.7524159,"lng":-73.9946955,"address":"316 West 34th Street ","rating":"","url":"","froyo":false,"chain":true},{"source":"yelp","id":"baskin-robbins-new-york-29","name":"Baskin Robbins","lat":40.726379,"lng":-73.985855,"address":"100 1st Ave, New York, NY 10009","rating":1,"url":"http://www.yelp.com/biz/baskin-robbins-new-york-29","froyo":false,"chain":true},{"source":"foursquare","id":"4f997b46d4f21823bb1f4bc2","name":"Baskin Robbins","lat":40.82435,"lng":-73.892,"address":"1040 Westchester Ave, Bronx, NY 10459","rating":"","url":"http://www.baskinrobbins.com","froyo":false,"chain":true},{"source":"foursquare","id":"4e4e4525bd4101d0d7a67735","name":"Baskin Robbins","lat":40.82078073770791,"lng":-73.93721919773583,"address":"110 W 145th St, New York, NY 10039","rating":"","url":"http://www.baskinrobbins.com","froyo":false,"chain":true},{"source":"foursquare","id":"4bd05abf77b29c74418a8a82","name":"Baskin Robbins","lat":40.830914393470664,"lng":-73.91028286586223,"address":"1167 Webster Ave, Bronx, NY 10456","rating":"","url":"http://www.baskinrobbins.com","froyo":false,"chain":true},{"source":"foursquare","id":"4f997b48d4f21823bb1f4c81","name":"Baskin Robbins","lat":40.76465506074045,"lng":-73.95766006682757,"address":"1225 1st Ave (At E. 66th St.), New York, NY 10065","rating":"","url":"http://www.baskinrobbins.com","froyo":false,"chain":true},{"source":"foursquare","id":"4f997b48d4f21823bb1f4ca1","name":"Baskin Robbins","lat":40.65075131882208,"lng":-74.00441162405554,"address":"126 35th St, Brooklyn, NY 11232","rating":"","url":"http://www.baskinrobbins.com","froyo":false,"chain":true},{"source":"yelp","id":"dunkin-donuts-baskin-robbins-new-york-11","name":"Baskin Robbins","lat":40.862408,"lng":-73.925865,"address":"130 Dyckman St, New York, NY 10040","rating":3.5,"url":"http://www.yelp.com/biz/dunkin-donuts-baskin-robbins-new-york-11","froyo":false,"chain":true},{"source":"foursquare","id":"4e4e4526bd4101d0d7a6774c","name":"Baskin Robbins","lat":40.81340593,"lng":-73.95682546,"address":"1342 Amsterdam Ave, New York, NY 10027","rating":"","url":"http://www.baskinrobbins.com","froyo":false,"chain":true},{"source":"foursquare","id":"4e4e4533bd4101d0d7a678df","name":"Baskin Robbins","lat":40.8326370738711,"lng":-73.86207293062316,"address":"1374 Metropolitan Ave, Bronx, NY 10462","rating":"","url":"http://baskinrobbins.com","froyo":false,"chain":true},{"source":"foursquare","id":"4f997b48d4f21823bb1f4cb5","name":"Baskin Robbins","lat":40.70145586386942,"lng":-73.94224207702084,"address":"13 Graham Ave, Brooklyn, NY 11206","rating":"","url":"http://www.baskinrobbins.com","froyo":false,"chain":true},{"source":"yelp","id":"dunkin-donuts-baskin-robbins-new-york-21","name":"Baskin Robbins","lat":40.718476,"lng":-73.986653,"address":"140 Delancey St, New York, NY 10002","rating":1,"url":"http://www.yelp.com/biz/dunkin-donuts-baskin-robbins-new-york-21","froyo":false,"chain":true},{"source":"foursquare","id":"4bd05aee77b29c74948a8a82","name":"Baskin Robbins","lat":40.83923462479854,"lng":-73.913813735729,"address":"140 E 170th St, Bronx, NY 10452","rating":"","url":"http://www.baskinrobbins.com","froyo":false,"chain":true},{"source":"yelp","id":"dunkin-donuts-baskin-robbins-brooklyn-9","name":"Baskin Robbins","lat":40.5876961,"lng":-73.9548264,"address":"1427 Sheepshead Bay Rd, Brooklyn, NY 11235","rating":3,"url":"http://www.yelp.com/biz/dunkin-donuts-baskin-robbins-brooklyn-9","froyo":false,"chain":true},{"source":"foursquare","id":"4f997b49d4f21823bb1f4d2e","name":"Baskin Robbins","lat":40.69863035905705,"lng":-73.91979023288077,"address":"1443 Myrtle Ave, Brooklyn, NY 11237","rating":"","url":"http://www.baskinrobbins.com","froyo":false,"chain":true},{"source":"yelp","id":"baskin-robbins-brooklyn-28","name":"Baskin Robbins","lat":40.686668,"lng":-73.990814,"address":"148 Smith St, Brooklyn, NY 11201","rating":1,"url":"http://www.yelp.com/biz/baskin-robbins-brooklyn-28","froyo":false,"chain":true},{"source":"foursquare","id":"4f329c3119836c91c7e889aa","name":"Baskin Robbins","lat":40.78416,"lng":-73.84581,"address":"1503 College Point Blvd, Flushing, NY 11356","rating":"","url":"http://www.baskinrobbins.com","froyo":false,"chain":true},{"source":"foursquare","id":"4bbe0d3aa8cf76b08d8eb2fd","name":"Baskin Robbins","lat":40.63915129406957,"lng":-73.91919316553353,"address":"1556 Ralph Ave, Brooklyn, NY 11236","rating":"","url":"http://www.baskinrobbins.com","froyo":false,"chain":true},{"source":"foursquare","id":"4e35f182ae60d86c3ac59979","name":"Baskin Robbins","lat":40.82331963809976,"lng":-73.87394277146755,"address":"1650 Bruckner Blvd, Bronx, NY 10473","rating":"","url":"http://www.baskinrobbins.com","froyo":false,"chain":true},{"source":"nyc-inspections","id":"baskinrobbins1716victoryboulevard","name":"Baskin Robbins","lat":40.6129002,"lng":-74.1209444,"address":"1716 VICTORY BOULEVARD, NY, NY 10314","rating":"10","url":"","froyo":false,"chain":true},{"source":"foursquare","id":"4f997b4bd4f21823bb1f4e0d","name":"Baskin Robbins","lat":40.780496137126065,"lng":-73.94813159576555,"address":"1760 2nd Ave, New York, NY 10128","rating":"","url":"http://www.baskinrobbins.com","froyo":false,"chain":true},{"source":"yelp","id":"baskin-robbins-brooklyn-27","name":"Baskin Robbins","lat":40.599388,"lng":-73.953026,"address":"1815 Avenue U, Brooklyn, NY 11229","rating":5,"url":"http://www.yelp.com/biz/baskin-robbins-brooklyn-27","froyo":false,"chain":true},{"source":"foursquare","id":"4f997b4bd4f21823bb1f4e48","name":"Baskin Robbins","lat":40.790540238458746,"lng":-73.94921648755594,"address":"1880 3rd Ave, New York, NY 10029","rating":"","url":"http://www.baskinrobbins.com","froyo":false,"chain":true},{"source":"yelp","id":"baskins-robbins-brooklyn","name":"Baskin Robbins","lat":40.6046562,"lng":-73.9986115,"address":"1976 86th St, Brooklyn, NY 11214","rating":3.5,"url":"http://www.yelp.com/biz/baskins-robbins-brooklyn","froyo":false,"chain":true},{"source":"foursquare","id":"4bd05b5a77b29c74518b8a82","name":"Baskin Robbins","lat":40.80429109352387,"lng":-73.93731104584027,"address":"2083 Lexington Ave (145 East 125th St), Manhattan, NY 10035","rating":"","url":"http://www.baskinrobbins.com","froyo":false,"chain":true},{"source":"foursquare","id":"4f997b4dd4f21823bb1f4ee8","name":"Baskin Robbins","lat":40.834429521353236,"lng":-73.85185636874057,"address":"2172 Westchester Ave, Bronx, NY 10462","rating":"","url":"http://www.baskinrobbins.com","froyo":false,"chain":true},{"source":"yelp","id":"baskin-robbins-new-york-3","name":"Baskin Robbins","lat":40.732689,"lng":-73.986519,"address":"218 E 14th St., New York, NY 10003","rating":2,"url":"http://www.yelp.com/biz/baskin-robbins-new-york-3","froyo":false,"chain":true},{"source":"foursquare","id":"4f91bd9b7beb818efa883f1a","name":"Baskin Robbins","lat":40.82801727860912,"lng":-73.88546737221141,"address":"2241 Southern Blvd, Bronx, NY 10460","rating":"","url":"http://www.baskinrobbins.com","froyo":false,"chain":true},{"source":"foursquare","id":"4f91bd9b7beb818efa883f25","name":"Baskin Robbins","lat":40.79616243509339,"lng":-73.93550851883505,"address":"2258 First Ave aka 401-403 East 116th St, Manhattan, NY 10029","rating":"","url":"http://www.baskinrobbins.com","froyo":false,"chain":true},{"source":"foursquare","id":"4f91bd9b7beb818efa883f73","name":"Baskin Robbins","lat":40.768688289413284,"lng":-73.91085699540278,"address":"2412 Steinway St, Astoria, NY 11103","rating":"","url":"http://www.baskinrobbins.com","froyo":false,"chain":true},{"source":"foursquare","id":"4c439a528c1f20a194583b99","name":"Baskin Robbins","lat":40.679747127968255,"lng":-73.88140771228618,"address":"245 Highland Pl (Atlantic Ave), Brooklyn, NY 11208","rating":"","url":"http://www.baskinrobbins.com","froyo":false,"chain":true},{"source":"foursquare","id":"4be8ab5b88ed2d7f5f35cc1d","name":"Baskin Robbins","lat":40.74800578210435,"lng":-73.97345562813142,"address":"250 E 40th St, New York, NY 10016","rating":"","url":"http://www.baskinrobbins.com","froyo":false,"chain":true},{"source":"yelp","id":"baskin-robbins-bronx-16","name":"Baskin Robbins","lat":40.8426296710968,"lng":-73.8457363843918,"address":"2702 E Tremont Ave, Bronx, NY 10461","rating":3,"url":"http://www.yelp.com/biz/baskin-robbins-bronx-16","froyo":false,"chain":true},{"source":"foursquare","id":"4e4e4535bd4101d0d7a6792c","name":"Baskin Robbins","lat":40.81718718494275,"lng":-73.9233955621207,"address":"274 E 149th St, Bronx, NY 10451","rating":"","url":"http://www.baskinrobbins.com","froyo":false,"chain":true},{"source":"foursquare","id":"4f997b50d4f21823bb1f503d","name":"Baskin Robbins","lat":40.7566070862406,"lng":-73.92986546766606,"address":"30-18 36th Avenue, Long Island City, NY 11106, USA","rating":"","url":"http://www.baskinrobbins.com","froyo":false,"chain":true},{"source":"yelp","id":"baskin-robbins-manhattan","name":"Baskin Robbins","lat":40.746857,"lng":-73.986351,"address":"302 5th Ave, Manhattan, NY 10001","rating":2.5,"url":"http://www.yelp.com/biz/baskin-robbins-manhattan","froyo":false,"chain":true},{"source":"foursquare","id":"4b92a814f964a520510e34e3","name":"Baskin Robbins","lat":40.76100461,"lng":-73.92292,"address":"31-78-31-98 34th Street, Long Island City, NY 11106, USA","rating":5,"url":"http://www.dunkindonuts.com","froyo":false,"chain":true},{"source":"foursquare","id":"4e4e4528bd4101d0d7a67782","name":"Baskin Robbins","lat":40.71478888995233,"lng":-74.00784895779678,"address":"321 Broadway, New York, NY 10007","rating":"","url":"http://www.baskinrobbins.com","froyo":false,"chain":true},{"source":"yelp","id":"baskin-robbins-bronx-3","name":"Baskin Robbins","lat":40.8813553,"lng":-73.8825684,"address":"3436 Jerome Ave, Bronx, NY 10467","rating":3,"url":"http://www.yelp.com/biz/baskin-robbins-bronx-3","froyo":false,"chain":true},{"source":"foursquare","id":"4bd8b9dbe914a593ad3d54fa","name":"Baskin Robbins","lat":40.75138592252092,"lng":-73.99781227111816,"address":"360 W. 31st St 21 Penn Plaza (9th Ave), New York, NY 10001","rating":"","url":"http://www.baskinrobbins.com","froyo":false,"chain":true},{"source":"yelp","id":"dunkin-donuts-and-baskin-robins-new-york-4","name":"Baskin Robbins","lat":40.7358017,"lng":-73.9796295,"address":"361 1st Ave, New York, NY 10010","rating":3,"url":"http://www.yelp.com/biz/dunkin-donuts-and-baskin-robins-new-york-4","froyo":false,"chain":true},{"source":"foursquare","id":"4c4a6ccf712ac9286e606e6b","name":"Baskin Robbins","lat":40.734371092093845,"lng":-73.97830538611639,"address":"361 1st Ave (21st St), New York, NY 10010","rating":"","url":"http://www.baskinrobbins.com","froyo":false,"chain":true},{"source":"yelp","id":"baskin-robbins-brooklyn-8","name":"Baskin Robbins","lat":40.6716173887253,"lng":-73.996530175209,"address":"37 12th St, Brooklyn, NY 11215","rating":3,"url":"http://www.yelp.com/biz/baskin-robbins-brooklyn-8","froyo":false,"chain":true},{"source":"foursquare","id":"4cc4db8f80624688841f392f","name":"Baskin Robbins","lat":40.684640273307174,"lng":-73.99658988168842,"address":"383 Court St (Smith), Brooklyn, NY 11231","rating":"","url":"http://www.baskinrobbins.com","froyo":false,"chain":true},{"source":"foursquare","id":"4f91bd9f7beb818efa8841fc","name":"Baskin Robbins","lat":40.84433561040667,"lng":-73.89771474652507,"address":"4115 3rd Ave, Bronx, NY 10457","rating":"","url":"http://www.baskinrobbins.com","froyo":false,"chain":true},{"source":"yelp","id":"baskin-robbins-long-island-city","name":"Baskin Robbins","lat":40.7530412077904,"lng":-73.9213632792234,"address":"42-02 Northern Blvd, Long Island City, NY 11101","rating":5,"url":"http://www.yelp.com/biz/baskin-robbins-long-island-city","froyo":false,"chain":true},{"source":"foursquare","id":"4e4e4512bd4101d0d7a674c2","name":"Baskin Robbins","lat":40.77020441152941,"lng":-73.90448406266498,"address":"4322 Ditmars Blvd, Astoria, NY 11105","rating":"","url":"http://www.baskinrobbins.com","froyo":false,"chain":true},{"source":"foursquare","id":"4db89e5043a1e5b1e2b9c548","name":"Baskin Robbins","lat":40.678243241395435,"lng":-73.89824872146909,"address":"43 Jamaica Ave, Brooklyn, NY 11207","rating":"","url":"http://www.baskinrobbins.com","froyo":false,"chain":true},{"source":"foursquare","id":"4f997b54d4f21823bb1f51a3","name":"Baskin Robbins","lat":40.66898913848308,"lng":-73.9864549997561,"address":"448 5th Ave, Brooklyn, NY 11215","rating":"","url":"http://www.baskinrobbins.com","froyo":false,"chain":true},{"source":"foursquare","id":"4f91bda07beb818efa884273","name":"Baskin Robbins","lat":40.74348972403721,"lng":-73.91841238239003,"address":"4513 Queens Blvd, Sunnyside, NY 11104","rating":"","url":"http://www.baskinrobbins.com","froyo":false,"chain":true},{"source":"foursquare","id":"4e4e4516bd4101d0d7a6755d","name":"Baskin Robbins","lat":40.83600632686291,"lng":-73.92088102426091,"address":"46 E 167th St, Bronx, NY 10452","rating":"","url":"http://www.baskinrobbins.com","froyo":false,"chain":true},{"source":"yelp","id":"dunkin-donuts-baskin-robbins-new-york-8","name":"Baskin Robbins","lat":40.7401085,"lng":-73.9790649,"address":"476 2nd Ave, New York, NY 10016","rating":3,"url":"http://www.yelp.com/biz/dunkin-donuts-baskin-robbins-new-york-8","froyo":false,"chain":true},{"source":"foursquare","id":"527069d411d23cff8ff57dc1","name":"Baskin Robbins","lat":40.75541823973989,"lng":-73.99882223838625,"address":"501-511 West 35th Street, New York, NY 10001, USA","rating":"","url":"","froyo":false,"chain":true},{"source":"yelp","id":"dunkin-donuts-and-baskin-robbins-new-york-2","name":"Baskin Robbins","lat":40.7673367112875,"lng":-73.9901894330978,"address":"505 W 54th St, New York, NY 10019","rating":2,"url":"http://www.yelp.com/biz/dunkin-donuts-and-baskin-robbins-new-york-2","froyo":false,"chain":true},{"source":"foursquare","id":"4f91bda47beb818efa88437c","name":"Baskin Robbins","lat":40.65575,"lng":-73.94268,"address":"506 Clarkson Ave, Brooklyn, NY 11203","rating":"","url":"http://www.baskinrobbins.com","froyo":false,"chain":true},{"source":"foursquare","id":"4b970d38f964a52077f534e3","name":"Baskin Robbins","lat":40.801697166110344,"lng":-73.94874393939972,"address":"53 W 116th St (at Lenox), New York, NY 10026","rating":"","url":"http://www.baskinrobbins.com","froyo":false,"chain":true},{"source":"foursquare","id":"4f91bda57beb818efa8843df","name":"Baskin Robbins","lat":40.642361,"lng":-74.012985,"address":"5425 5th Ave, Brooklyn, NY 11220","rating":"","url":"http://www.baskinrobbins.com","froyo":false,"chain":true},{"source":"yelp","id":"dunkin-donuts-and-baskin-robbins-bronx-3","name":"Baskin Robbins","lat":40.877121,"lng":-73.9065399,"address":"5501 Broadway, Bronx, NY 10463","rating":2.5,"url":"http://www.yelp.com/biz/dunkin-donuts-and-baskin-robbins-bronx-3","froyo":false,"chain":true},{"source":"yelp","id":"dunkin-donuts-and-baskin-robins-new-york-2","name":"Baskin Robbins","lat":40.762722,"lng":-73.9770889,"address":"55 W 55th St, New York, NY 10019","rating":3,"url":"http://www.yelp.com/biz/dunkin-donuts-and-baskin-robins-new-york-2","froyo":false,"chain":true},{"source":"foursquare","id":"4f91bda57beb818efa884415","name":"Baskin Robbins","lat":40.64516,"lng":-74.02135,"address":"5702 2nd Ave, Brooklyn, NY 11220","rating":"","url":"http://www.baskinrobbins.com","froyo":false,"chain":true},{"source":"foursquare","id":"4f997b56d4f21823bb1f5298","name":"Baskin Robbins","lat":40.689838774225706,"lng":-73.95231614483886,"address":"573 Lafayette Ave, Brooklyn, NY 11205","rating":"","url":"http://www.baskinrobbins.com","froyo":false,"chain":true},{"source":"foursquare","id":"4e3748af63651b08cc423f49","name":"Baskin Robbins","lat":40.65264340548722,"lng":-73.92153024673462,"address":"5901 Church Ave (Ralph Ave), Brooklyn, NY 11203","rating":"","url":"http://www.dunkindonuts.com","froyo":false,"chain":true},{"source":"foursquare","id":"4f91bda57beb818efa884473","name":"Baskin Robbins","lat":40.72089591404394,"lng":-73.90387546539584,"address":"6103 Flushing Ave, Flushing, NY 11378","rating":"","url":"http://www.baskinrobbins.com","froyo":false,"chain":true},{"source":"foursquare","id":"4f91bda57beb818efa884470","name":"Baskin Robbins","lat":40.6582269367913,"lng":-73.93112842318435,"address":"610 Utica Ave, Brooklyn, NY 11203","rating":"","url":"http://www.baskinrobbins.com","froyo":false,"chain":true},{"source":"foursquare","id":"4f32420119836c91c7c5cb31","name":"Baskin Robbins","lat":40.789337,"lng":-73.97012,"address":"630 Columbus Ave, New York, NY 10024","rating":"","url":"http://www.baskinrobbins.com","froyo":false,"chain":true},{"source":"foursquare","id":"4f997b57d4f21823bb1f5302","name":"Baskin Robbins","lat":40.72297,"lng":-73.8675,"address":"6365 Woodhaven Blvd, Rego Park, NY 11374","rating":"","url":"http://www.baskinrobbins.com","froyo":false,"chain":true},{"source":"foursquare","id":"4f91bda67beb818efa8844ba","name":"Baskin Robbins","lat":40.624595,"lng":-73.999746,"address":"6502 14th Ave, Brooklyn, NY 11219","rating":"","url":"http://www.baskinrobbins.com","froyo":false,"chain":true},{"source":"foursquare","id":"4f91bda67beb818efa8844d9","name":"Baskin Robbins","lat":40.706903659596904,"lng":-73.89710612814125,"address":"6667 Fresh Pond Rd, Ridgewood, NY 11385","rating":"","url":"http://www.baskinrobbins.com","froyo":false,"chain":true},{"source":"foursquare","id":"4bd8bcdf2e6f0f47b35d0808","name":"Baskin Robbins","lat":40.69155198816841,"lng":-73.99061576069282,"address":"67 court street (smith), Brooklyn, NY 11201","rating":"","url":"http://www.baskinrobbins.com","froyo":false,"chain":true},{"source":"foursquare","id":"4f91bda77beb818efa884521","name":"Baskin Robbins","lat":40.704244861117154,"lng":-73.88736223415705,"address":"7007 Myrtle Ave, Glendale, NY 11385","rating":"","url":"http://www.baskinrobbins.com","froyo":false,"chain":true},{"source":"foursquare","id":"4f91bda77beb818efa884526","name":"Baskin Robbins","lat":40.75425,"lng":-73.89585,"address":"7016 Northern Blvd, Flushing, NY 11372","rating":"","url":"http://www.baskinrobbins.com","froyo":false,"chain":true},{"source":"foursquare","id":"4f997b58d4f21823bb1f5394","name":"Baskin Robbins","lat":40.84772286811466,"lng":-73.93961871517507,"address":"728 W 181st St, New York, NY 10033","rating":"","url":"http://www.baskinrobbins.com","froyo":false,"chain":true},{"source":"foursquare","id":"4b54ca58f964a52091cc27e3","name":"Baskin Robbins","lat":40.660638166613325,"lng":-73.99773762616975,"address":"737 4th Ave, Brooklyn, NY 11232","rating":5.7,"url":"http://www.dunkindonuts.com","froyo":false,"chain":true},{"source":"foursquare","id":"4f997b58d4f21823bb1f53a9","name":"Baskin Robbins","lat":40.745658640925996,"lng":-73.89134712635196,"address":"74-13 Roosevelt Ave, Jackson Heights, NY 11372","rating":"","url":"http://www.baskinrobbins.com","froyo":false,"chain":true},{"source":"yelp","id":"dunkin-donuts-and-baskin-robbins-howard-beach","name":"Baskin Robbins","lat":40.6662254,"lng":-73.8519058,"address":"8209 153rd Ave, Howard Beach, NY 11414","rating":2,"url":"http://www.yelp.com/biz/dunkin-donuts-and-baskin-robbins-howard-beach","froyo":false,"chain":true},{"source":"foursquare","id":"4c4dfbf21b8e1b8d28b37726","name":"Baskin Robbins","lat":40.63731338446951,"lng":-73.9111842484836,"address":"8301 Flatlands Ave, Brooklyn, NY 11236","rating":6.5,"url":"http://www.dunkindonuts.com","froyo":false,"chain":true},{"source":"yelp","id":"dunkin-donut-and-baskin-robbin-brooklyn","name":"Baskin Robbins","lat":40.6508712768555,"lng":-73.9591751098633,"address":"872 Flatbush Ave, Brooklyn, NY 11226","rating":3,"url":"http://www.yelp.com/biz/dunkin-donut-and-baskin-robbin-brooklyn","froyo":false,"chain":true},{"source":"foursquare","id":"4f4494da19836ed001950b4a","name":"Baskin Robbins","lat":40.7577,"lng":-73.9694,"address":"875 3rd Ave, New York, NY 10022","rating":"","url":"http://www.baskinrobbins.com","froyo":false,"chain":true},{"source":"foursquare","id":"4f997b59d4f21823bb1f5478","name":"Baskin Robbins","lat":40.73006,"lng":-73.95411,"address":"892 Manhattan Ave, Brooklyn, NY 11222","rating":"","url":"http://www.baskinrobbins.com","froyo":false,"chain":true},{"source":"foursquare","id":"4f997b5bd4f21823bb1f548c","name":"Baskin Robbins","lat":40.63515859441212,"lng":-73.96805474791232,"address":"906 Coney Island Ave, Brooklyn, NY 11218","rating":"","url":"http://www.baskinrobbins.com","froyo":false,"chain":true},{"source":"foursquare","id":"4f997b5cd4f21823bb1f54c0","name":"Baskin Robbins","lat":40.736834159648666,"lng":-73.86565635441109,"address":"9507 57th Ave, Elmhurst, NY 11373","rating":"","url":"http://www.baskinrobbins.com","froyo":false,"chain":true},{"source":"foursquare","id":"4f91bdaa7beb818efa88472e","name":"Baskin Robbins","lat":40.765946609833826,"lng":-73.88567408531542,"address":"Grand Central Pkwy LaGuardia Airport Central Terminal Bldg, Flushing, NY 11371","rating":"","url":"http://www.baskinrobbins.com","froyo":false,"chain":true},{"source":"foursquare","id":"51ff11f5498e240fa7cb72b4","name":"Baskin Robbins","lat":40.71257358558277,"lng":-73.98966883682196,"address":"Madison Street (Rutgers Street), New York, NY 10002","rating":6.6,"url":"","froyo":false,"chain":true},{"source":"nyc-inspections","id":"baysweetcafe382baystreet","name":"BAY SWEET CAFE","lat":40.6327939,"lng":-74.07580999999999,"address":"382 BAY STREET, NY, NY 10301","rating":"11","url":"","froyo":false,"chain":false},{"source":"foursquare","id":"4f3249dc19836c91c7c8f302","name":"BBC Ice Cream","lat":40.72619,"lng":-74.000829,"address":"456 W Broadway, New York, NY 10012","rating":7,"url":"http://bbcicecream.com","froyo":false,"chain":false},{"source":"foursquare","id":"4ba8ff54f964a520ec013ae3","name":"Ben & Jerry's","lat":40.75081145392802,"lng":-73.9891465919606,"address":"151 W 34th St (Broadway), New York, NY 10001","rating":6.7,"url":"http://benjerry.com","froyo":false,"chain":true},{"source":"nyc-inspections","id":"benjerrys1jfkinternairport","name":"BEN & JERRY'S","lat":40.6433507,"lng":-73.7889689,"address":"1 JFK INTERN AIRPORT, NY, NY 11430","rating":"12","url":"","froyo":false,"chain":true},{"source":"foursquare","id":"51c2305e498e1b49d9965d2b","name":"Ben & Jerry's","lat":40.75768149,"lng":-73.98648943,"address":"200 W 44th St, New York, NY 10036","rating":7.5,"url":"http://www.benjerry.com","froyo":false,"chain":true},{"source":"foursquare","id":"49dc07e4f964a5204d5f1fe3","name":"Ben & Jerry's","lat":40.79981969,"lng":-73.96808344,"address":"2722 Broadway, New York, NY 10025","rating":7.6,"url":"http://www.benjerry.com","froyo":false,"chain":true},{"source":"foursquare","id":"4b54a8e9f964a52072c527e3","name":"Ben & Jerry's","lat":40.75885072,"lng":-73.97891343,"address":"30 Rockefeller Plz, New York, NY 10112","rating":8,"url":"http://www.benjerry.com","froyo":false,"chain":true},{"source":"foursquare","id":"4fb95f44e4b01ebaad3a6628","name":"Yogurt Berry","lat":40.680202897776056,"lng":-73.97794381074516,"address":"5th Avenue (Prospect Place), Brooklyn, NY 11217","rating":"","url":"","froyo":true,"chain":false},{"source":"yelp","id":"berry-froyo-manhattan","name":"Berry FroYo","lat":40.7347984,"lng":-73.9906998,"address":"14th St and Broadway, Manhattan, NY 10003","rating":4.5,"url":"http://www.yelp.com/biz/berry-froyo-manhattan","froyo":true,"chain":false},{"source":"yelp","id":"berrylicious-new-york-2","name":"Berrylicious","lat":40.7909203,"lng":-73.9721832,"address":"641 Amsterdam Ave, New York, NY 10024","rating":4,"url":"http://www.yelp.com/biz/berrylicious-new-york-2","froyo":false,"chain":false},{"source":"yelp","id":"berrylicious-new-york","name":"Berrylicious","lat":40.7300606,"lng":-73.8237534,"address":"69-48 Main St, New York, NY 11367","rating":3,"url":"http://www.yelp.com/biz/berrylicious-new-york","froyo":false,"chain":false},{"source":"foursquare","id":"4e300d723151250387b61125","name":"Big Gay Ice Cream Shop","lat":40.72634864558351,"lng":-73.98415714502335,"address":"125 E 7th St (btwn 1st Ave & Ave A), New York, NY 10009","rating":9.2,"url":"http://biggayicecream.com","froyo":false,"chain":false},{"source":"foursquare","id":"50ba7adbe4b036209ec2a3bd","name":"Big Gay Ice Cream Shop","lat":40.73319335248443,"lng":-74.00298846947285,"address":"61 Grove St (at 7th Ave S), New York, NY 10014","rating":9,"url":"http://biggayicecream.com","froyo":false,"chain":false},{"source":"yelp","id":"blueberry-cafe-new-york","name":"Blueberry Cafe","lat":40.617952,"lng":-73.958419,"address":"1618 Avenue M, New York, NY 11230","rating":3.5,"url":"http://www.yelp.com/biz/blueberry-cafe-new-york","froyo":false,"chain":false},{"source":"foursquare","id":"49c826cbf964a520fa571fe3","name":"Blue Marble","lat":40.67492686666667,"lng":-73.966733,"address":"186 Underhill Ave, Brooklyn, NY 11238","rating":8.6,"url":"https://www.facebook.com/pages/Blue-Marble-Ice-Cream/415075860304","froyo":false,"chain":false},{"source":"foursquare","id":"4b78484ef964a520fbc12ee3","name":"Blue Marble","lat":40.68715136647779,"lng":-73.99355406440372,"address":"196 Court St (btwn Congress & Wyckoff St.), Brooklyn, NY 11201","rating":8.7,"url":"https://www.facebook.com/pages/Blue-Marble-Ice-Cream/415075860304","froyo":false,"chain":false},{"source":"yelp","id":"blue-marble-ice-cream-brooklyn","name":"Blue Marble Ice Cream","lat":40.6941605,"lng":-74.0005569,"address":"2 Joralemon, Brooklyn, NY 11201","rating":3.5,"url":"http://www.yelp.com/biz/blue-marble-ice-cream-brooklyn","froyo":false,"chain":false},{"source":"foursquare","id":"4c3a5ad83849c92880e0c2b1","name":"Blue Marble Ice Cream","lat":40.70136599888968,"lng":-73.99794101715088,"address":"Brooklyn Bridge Park - Pier 1, Brooklyn, NY 11201","rating":8.5,"url":"https://www.facebook.com/pages/Blue-Marble-Ice-Cream/415075860304","froyo":false,"chain":false},{"source":"foursquare","id":"51b5e134011cd1b8ea0f3ba8","name":"Blue Marble at the Brooklyn Flea","lat":40.688253132146784,"lng":-73.96661281585693,"address":"251-271 Lafayette Avenue, Brooklyn, NY 11238, USA","rating":"","url":"https://www.facebook.com/pages/Blue-Marble-Ice-Cream/415075860304","froyo":false,"chain":false},{"source":"foursquare","id":"52013789498e281e8e939ed1","name":"Blue Marble @ Pier 25","lat":40.71984765792407,"lng":-74.01283556418846,"address":"West Side Highway, New York, NY","rating":"","url":"http://pier25.org","froyo":false,"chain":false},{"source":"manual","id":"blue-marble-gi","name":"Blue Marble Ice Cream (Seasonal)","lat":40.6883842,"lng":-74.0168111,"address":"King Avenue on Governors Island","rating":"","url":"http://www.bluemarbleicecream.com/find/seasonal-outposts/","froyo":false,"chain":false},{"source":"manual","id":"blue-marble-gi2","name":"Blue Marble Ice Cream (Seasonal)","lat":40.6883842,"lng":-74.0168111,"address":"Nolan Park on Governors Island","rating":"","url":"","froyo":false,"chain":false},{"source":"foursquare","id":"4e4e628abd4101d0d7a8f86f","name":"Blythe Ann's","lat":40.72514739250713,"lng":-73.98303449978644,"address":"516 E 6th St (btwn Avenue A & B), New York, NY 10009","rating":8.7,"url":"","froyo":false,"chain":false},{"source":"nyc-inspections","id":"bobsdiscountfurniture7225woodhavenboulevard","name":"BOB'S DISCOUNT FURNITURE","lat":40.7108699,"lng":-73.8590848,"address":"7225 WOODHAVEN BOULEVARD, NY, NY 11385","rating":"","url":"","froyo":false,"chain":false},{"source":"foursquare","id":"4e06cd92d4c03ae0b9c66dee","name":"Boulevard Ice","lat":40.8151638507843,"lng":-73.94741892814636,"address":"West 133rd (Frederick Douglass boulevard), New York, NY 10030","rating":"","url":"","froyo":false,"chain":false},{"source":"foursquare","id":"4cbbb74890c9a143c80a97d6","name":"Breeze Cafe","lat":40.64271811065512,"lng":-74.01617519789563,"address":"5613 4th Ave (56 And 57 St.), Brooklyn, NY 11220","rating":"","url":"","froyo":false,"chain":false},{"source":"yelp","id":"brewla-bars-new-york","name":"Brewla Bars","lat":40.7074418574665,"lng":-74.0040443053521,"address":"Fulton Market at South Street Seaport, New York, NY 10038","rating":4.5,"url":"http://www.yelp.com/biz/brewla-bars-new-york","froyo":false,"chain":false},{"source":"foursquare","id":"5371218a498e9f827df62238","name":"Brooklyn Bell's The Local","lat":40.6720186122416,"lng":-73.96115563502221,"address":"843 Classon Ave (Eastern Parkway), Brooklyn, NY 11238","rating":8.8,"url":"http://www.brooklynbell.com","froyo":false,"chain":false},{"source":"foursquare","id":"4abd01bbf964a5200a8820e3","name":"Brooklyn Ice Cream Factory","lat":40.70318386323018,"lng":-73.99470627307892,"address":"1 Water St (at Old Fulton St), Brooklyn, NY 11201","rating":8.7,"url":"http://www.brooklynicecreamfactory.com","froyo":false,"chain":false},{"source":"foursquare","id":"465c3714f964a5202f471fe3","name":"Brooklyn Ice Cream Factory - Greenpoint","lat":40.737688225,"lng":-73.955931,"address":"97 Commercial St (at Manhattan Ave), Brooklyn, NY 11222","rating":7.1,"url":"http://www.brooklynicecreamfactory.com","froyo":false,"chain":false},{"source":"foursquare","id":"50a01ab7e4b09c89238763c4","name":"Brooklyn Farmacy at Barclay's Center","lat":40.68305152083607,"lng":-73.97569399316195,"address":"Atlantic Avenue, Brooklyn, NY 11217","rating":"","url":"","froyo":false,"chain":false},{"source":"foursquare","id":"4a414e48f964a52010a51fe3","name":"Brooklyn Farmacy & Soda Fountain","lat":40.68410746342771,"lng":-73.999344456893,"address":"513 Henry St (at Sackett St), Brooklyn, NY 11231","rating":9.4,"url":"http://www.brooklynfarmacyandsodafountain.com","froyo":false,"chain":false},{"source":"foursquare","id":"50a82339e4b02938be9ca2d6","name":"Brooklyn Scoop","lat":40.630477,"lng":-74.028107,"address":"7610 3rd Ave, Brooklyn, NY 11209","rating":"","url":"","froyo":false,"chain":false},{"source":"foursquare","id":"4fe3ed9be4b0d43f1f7f30a4","name":"Brooklyn Swirl","lat":40.68185214599745,"lng":-73.93785065257472,"address":"445 Marcus Garvey Blvd, Brooklyn, NY 11216","rating":8.7,"url":"http://www.brooklynswirl.com","froyo":false,"chain":false},{"source":"yelp","id":"bubble-crepe-forest-hills","name":"Bubble Crepe","lat":40.7206844,"lng":-73.8461665,"address":"70-23 Austin St, Forest Hills, NY 11375","rating":3,"url":"http://www.yelp.com/biz/bubble-crepe-forest-hills","froyo":false,"chain":false},{"source":"yelp","id":"buonitalia-new-york-2","name":"buonitalia","lat":40.7421417,"lng":-74.0047073,"address":"75 9th Ave, New York, NY 10011","rating":4,"url":"http://www.yelp.com/biz/buonitalia-new-york-2","froyo":false,"chain":false},{"source":"foursquare","id":"5113fffee0e2a0a0770660fa","name":"BURGERFI","lat":40.775081,"lng":-73.954078,"address":"1571 2nd Ave (btwn E 81st & E 82nd St), New York, NY 10028","rating":7.9,"url":"http://burgerfi.com","froyo":false,"chain":false},{"source":"yelp","id":"burger-heights-new-york-2","name":"Burger Heights","lat":40.850178,"lng":-73.934448,"address":"177 Wadsworth Ave, New York, NY 10033","rating":4,"url":"http://www.yelp.com/biz/burger-heights-new-york-2","froyo":false,"chain":false},{"source":"manual","id":"cacao-market-brooklyn","name":"Cacao Market","lat":40.723521,"lng":-73.953138,"address":"67 Guernsey Street","rating":"","url":"http://cacaomarketnyc.com/","froyo":false,"chain":false},{"source":"yelp","id":"caf√©-east-new-york-2","name":"Cafe East","lat":40.8066867291927,"lng":-73.9646755903959,"address":"2920 Broadway,Ground Floor, New York, NY 10027","rating":3,"url":"http://www.yelp.com/biz/caf%C3%A9-east-new-york-2","froyo":false,"chain":false},{"source":"foursquare","id":"518dfa84498e08be0a7dffe6","name":"Cafe Froyo","lat":40.67121486621636,"lng":-73.9576887663316,"address":"800 Franklin Ave, Brooklyn, NY 11238","rating":6.1,"url":"http://cafefroyo-hub.com","froyo":true,"chain":false},{"source":"yelp","id":"caffebene-flushing","name":"Caffebene","lat":40.76096,"lng":-73.82785,"address":"136-83 39th Ave, Flushing, NY 11354","rating":2.5,"url":"http://www.yelp.com/biz/caffebene-flushing","froyo":false,"chain":false},{"source":"yelp","id":"caffebene-new-york-7","name":"Caffebene","lat":40.7555389,"lng":-73.9903488,"address":"264 west 40th Street, New York, NY 10018","rating":3,"url":"http://www.yelp.com/biz/caffebene-new-york-7","froyo":false,"chain":false},{"source":"yelp","id":"caffebene-new-york-4","name":"Caffebene","lat":40.7463872476551,"lng":-73.9936709403992,"address":"299 7th Ave, New York, NY 10001","rating":2.5,"url":"http://www.yelp.com/biz/caffebene-new-york-4","froyo":false,"chain":false},{"source":"yelp","id":"caffebene-astoria-3","name":"Caffebene","lat":40.7754870874927,"lng":-73.9097853540483,"address":"31-30 Ditmars Blvd, Astoria, NY 11105","rating":4,"url":"http://www.yelp.com/biz/caffebene-astoria-3","froyo":false,"chain":false},{"source":"yelp","id":"caffebene-new-york-9","name":"Caffebene","lat":40.7481575012207,"lng":-73.9873123168945,"address":"39 W 32nd St, New York, NY 10001","rating":2.5,"url":"http://www.yelp.com/biz/caffebene-new-york-9","froyo":false,"chain":false},{"source":"yelp","id":"caffebene-sunnyside","name":"Caffebene","lat":40.7439207362114,"lng":-73.9225117284238,"address":"41-31 Queens Blvd, Sunnyside, NY 11104","rating":3.5,"url":"http://www.yelp.com/biz/caffebene-sunnyside","froyo":false,"chain":false},{"source":"yelp","id":"caffebene-new-york-5","name":"Caffebene","lat":40.736,"lng":-73.99437,"address":"6 W 14th St, New York, NY 10011","rating":3,"url":"http://www.yelp.com/biz/caffebene-new-york-5","froyo":false,"chain":false},{"source":"yelp","id":"caffebene-new-york-8","name":"Caffebene","lat":40.7080203294754,"lng":-74.0143896639347,"address":"89 Washington St, New York, NY 10006","rating":2.5,"url":"http://www.yelp.com/biz/caffebene-new-york-8","froyo":false,"chain":false},{"source":"yelp","id":"caffebene-new-york-6","name":"Caffebene","lat":40.8344536274672,"lng":-73.9453469216824,"address":"9 Edward M. Morgan Pl, New York, NY 10032","rating":3.5,"url":"http://www.yelp.com/biz/caffebene-new-york-6","froyo":false,"chain":false},{"source":"yelp","id":"caffe-biu-bella-forest-hills","name":"Caffe Biu Bella","lat":40.7215805,"lng":-73.8460999,"address":"10702 Queens Blvd, Forest Hills, NY 11375","rating":3,"url":"http://www.yelp.com/biz/caffe-biu-bella-forest-hills","froyo":false,"chain":false},{"source":"yelp","id":"caffe-latte-middle-village","name":"Caffe Latte","lat":40.7129784,"lng":-73.8731232,"address":"79-10 Metropolitan Ave, Middle Village, NY 11379","rating":4,"url":"http://www.yelp.com/biz/caffe-latte-middle-village","froyo":false,"chain":false},{"source":"yelp","id":"cake-vs-shake-brooklyn","name":"Cake Vs Shake","lat":40.6634102,"lng":-73.9778824,"address":"Prospect Park West and 11th St, Brooklyn, NY 11215","rating":3.5,"url":"http://www.yelp.com/biz/cake-vs-shake-brooklyn","froyo":false,"chain":false},{"source":"yelp","id":"yogurt-and-candy-world-new-york","name":"Yogurt & Candy World","lat":40.7835159,"lng":-73.9745331,"address":"442 Columbus Ave, New York, NY 10024","rating":3.5,"url":"http://www.yelp.com/biz/yogurt-and-candy-world-new-york","froyo":true,"chain":false},{"source":"nyc-inspections","id":"cangesitalianices118parkinsonave","name":"CANGE'S ITALIAN ICES","lat":40.598206,"lng":-74.0841949,"address":"118 PARKINSON AVE, NY, NY 10305","rating":"","url":"","froyo":false,"chain":false},{"source":"yelp","id":"capitoline-grounds-brooklyn-2","name":"Capitoline Grounds","lat":40.6798636820106,"lng":-73.9413199078882,"address":"1499 Fulton St, Brooklyn, NY 11216","rating":4,"url":"http://www.yelp.com/biz/capitoline-grounds-brooklyn-2","froyo":false,"chain":false},{"source":"foursquare","id":"4c6aab4496f176b0e457b636","name":"Carlton Ice Cream","lat":40.6472536,"lng":-73.950488,"address":"34 E 29th St, Brooklyn, NY 11226-5097","rating":"","url":"","froyo":false,"chain":false},{"source":"nyc-inspections","id":"carvelicecream1006east233street","name":"Carvel","lat":40.8903781,"lng":-73.84856870000002,"address":"1006 EAST 233 STREET, NY, NY 10466","rating":"23","url":"","froyo":false,"chain":true},{"source":"nyc-inspections","id":"carvelicecream10720atlanticavenue","name":"Carvel","lat":40.6909391,"lng":-73.83759739999999,"address":"10720 ATLANTIC AVENUE, NY, NY 11416","rating":"29","url":"","froyo":false,"chain":true},{"source":"foursquare","id":"4f29d875e4b02271ae4bf6be","name":"Carvel","lat":40.70967474359022,"lng":-74.00677013515947,"address":"112 John St, New York, NY 10038","rating":6.6,"url":"http://www.carvel.com","froyo":false,"chain":true},{"source":"nyc-inspections","id":"carvelicecream11610libertyavenue","name":"Carvel","lat":40.685635,"lng":-73.82632699999999,"address":"11610 LIBERTY AVENUE, NY, NY 11419","rating":"4","url":"","froyo":false,"chain":true},{"source":"foursquare","id":"4c12a92ea1010f47c9454918","name":"Carvel","lat":40.83339565117928,"lng":-73.85124186497394,"address":"1250 Castle Hill Avenue, Bronx, NY 10462","rating":"","url":"http://www.carvel.com","froyo":false,"chain":true},{"source":"nyc-inspections","id":"carvel126rooseveltavenue","name":"Carvel","lat":40.7529864,"lng":-73.8509773,"address":"126 ROOSEVELT AVENUE, NY, NY 11368","rating":"7","url":"","froyo":false,"chain":true},{"source":"nyc-inspections","id":"carvelicecream13118merrickboulevard","name":"Carvel","lat":40.6790788,"lng":-73.76095029999999,"address":"13118 MERRICK BOULEVARD, NY, NY 11434","rating":"11","url":"","froyo":false,"chain":true},{"source":"nyc-inspections","id":"carvelicecream1490114avenue","name":"Carvel","lat":40.7883222,"lng":-73.8160769,"address":"149-01 14 AVENUE, NY, NY 11357","rating":"6","url":"","froyo":false,"chain":true},{"source":"nyc-inspections","id":"carvelicecream16102unionturnpike","name":"Carvel","lat":40.7207343,"lng":-73.8060892,"address":"16102 UNION TURNPIKE, NY, NY 11366","rating":"9","url":"","froyo":false,"chain":true},{"source":"nyc-inspections","id":"carvelicecream16310crossbayboulevard","name":"Carvel","lat":40.6519527,"lng":-73.83852569999999,"address":"16310 CROSSBAY BOULEVARD, NY, NY 11414","rating":"17","url":"","froyo":false,"chain":true},{"source":"yelp","id":"carvel-brooklyn-15","name":"Carvel","lat":40.609066,"lng":-74.006141,"address":"1652 86th St, Brooklyn, NY 11214","rating":4.5,"url":"http://www.yelp.com/biz/carvel-brooklyn-15","froyo":false,"chain":true},{"source":"nyc-inspections","id":"carvelicecream1775richmondroad","name":"Carvel","lat":40.58727200000001,"lng":-74.104073,"address":"1775 RICHMOND ROAD, NY, NY 10306","rating":"","url":"","froyo":false,"chain":true},{"source":"nyc-inspections","id":"carvel189beach116thst","name":"Carvel","lat":40.5795515,"lng":-73.8371559,"address":"189 BEACH 116TH ST, NY, NY 11694","rating":"11","url":"","froyo":false,"chain":true},{"source":"yelp","id":"carvel-bronx-6","name":"Carvel","lat":40.854984,"lng":-73.855469,"address":"2045 Williamsbridge Rd, Bronx, NY 10461","rating":3.5,"url":"http://www.yelp.com/biz/carvel-bronx-6","froyo":false,"chain":true},{"source":"yelp","id":"carvel-brooklyn-12","name":"Carvel","lat":40.598806142807,"lng":-73.9978042244911,"address":"2166 Bath Ave, Brooklyn, NY 11214","rating":4,"url":"http://www.yelp.com/biz/carvel-brooklyn-12","froyo":false,"chain":true},{"source":"yelp","id":"carvel-ice-cream-bronx-2","name":"Carvel","lat":40.8563003540039,"lng":-73.9011001586914,"address":"2231 Grand Concourse,Ste A, Bronx, NY 10453","rating":4.5,"url":"http://www.yelp.com/biz/carvel-ice-cream-bronx-2","froyo":false,"chain":true},{"source":"yelp","id":"carvel-bronx","name":"Carvel","lat":40.8602905273438,"lng":-73.892448425293,"address":"2472 Webster Avenue, Bronx, NY 10458","rating":4,"url":"http://www.yelp.com/biz/carvel-bronx","froyo":false,"chain":true},{"source":"nyc-inspections","id":"carvelicecream26515hillsideavenue","name":"Carvel","lat":40.73894809999999,"lng":-73.7007062,"address":"26515 HILLSIDE AVENUE, NY, NY 11004","rating":"13","url":"","froyo":false,"chain":true},{"source":"yelp","id":"carvel-brooklyn-6","name":"Carvel","lat":40.5896492,"lng":-73.9608917,"address":"2744 Coney Island Ave, Brooklyn, NY 11235","rating":3.5,"url":"http://www.yelp.com/biz/carvel-brooklyn-6","froyo":false,"chain":true},{"source":"nyc-inspections","id":"carvelicecream280marshave","name":"Carvel","lat":40.5781824,"lng":-74.16403500000001,"address":"280 MARSH AVE, NY, NY 10314","rating":"7","url":"","froyo":false,"chain":true},{"source":"nyc-inspections","id":"carvelicecream2828francislewisboulevard","name":"Carvel","lat":40.7707511,"lng":-73.7938875,"address":"2828 FRANCIS LEWIS BOULEVARD, NY, NY 11358","rating":"22","url":"","froyo":false,"chain":true},{"source":"foursquare","id":"4f327a7419836c91c7dbba5a","name":"Carvel","lat":40.650859,"lng":-73.949921,"address":"2851 Church Ave, Brooklyn, NY 11226","rating":"","url":"http://www.carvel.com","froyo":false,"chain":true},{"source":"foursquare","id":"49ff94fdf964a52037701fe3","name":"Carvel","lat":40.74972786714098,"lng":-73.993821144104,"address":"2 Penn Plz, New York, NY 10121","rating":"","url":"http://carvel.com","froyo":false,"chain":true},{"source":"yelp","id":"carvel-twin-donut-bronx","name":"Carvel","lat":40.847698,"lng":-73.831886,"address":"3011 Westchester Avenue, Bronx, NY 10461","rating":2.5,"url":"http://www.yelp.com/biz/carvel-twin-donut-bronx","froyo":false,"chain":true},{"source":"foursquare","id":"509aaaa46ebbda87a3c403e0","name":"Carvel","lat":40.76670971905963,"lng":-73.92102454898685,"address":"3108 30th Ave, Astoria, NY 11102","rating":"","url":"http://www.carvel.com","froyo":false,"chain":true},{"source":"yelp","id":"carvel-ice-cream-store-2581-bronx","name":"Carvel","lat":40.832127,"lng":-73.827927,"address":"3442 E Tremont Avenue, Bronx, NY 10465","rating":4,"url":"http://www.yelp.com/biz/carvel-ice-cream-store-2581-bronx","froyo":false,"chain":true},{"source":"yelp","id":"carvel-ice-cream-bakery-brooklyn","name":"Carvel","lat":40.5963669,"lng":-73.9412689,"address":"3594 Nostrand Ave, Brooklyn, NY 11229","rating":3.5,"url":"http://www.yelp.com/biz/carvel-ice-cream-bakery-brooklyn","froyo":false,"chain":true},{"source":"nyc-inspections","id":"carvelicecream4332amboyroad","name":"Carvel","lat":40.5451213,"lng":-74.15969900000002,"address":"4332 AMBOY ROAD, NY, NY 10312","rating":"9","url":"","froyo":false,"chain":true},{"source":"yelp","id":"carvel-brooklyn","name":"Carvel","lat":40.618537902832,"lng":-73.9295883178711,"address":"4702 Avenue N, Brooklyn, NY 11234","rating":3,"url":"http://www.yelp.com/biz/carvel-brooklyn","froyo":false,"chain":true},{"source":"foursquare","id":"4c939bb6034137043b306aef","name":"Carvel","lat":40.81777166539394,"lng":-73.92249584197998,"address":"560 Morris Ave, Bronx, NY 10451","rating":"","url":"http://www.carvel.com","froyo":false,"chain":true},{"source":"foursquare","id":"4c3f9b15da3dc9282528c6b9","name":"Carvel","lat":40.712879358593064,"lng":-73.90647060279397,"address":"56-12 Metropolitan Ave, Ridgewood, NY 11385","rating":6.5,"url":"http://www.carvel.com","froyo":false,"chain":true},{"source":"yelp","id":"carvel-bakery-ice-cream-bronx","name":"Carvel","lat":40.8836232125759,"lng":-73.9015685766935,"address":"5761 Broadway, Bronx, NY 10463","rating":3.5,"url":"http://www.yelp.com/biz/carvel-bakery-ice-cream-bronx","froyo":false,"chain":true},{"source":"foursquare","id":"4bf5bcee5efe2d7f6ae86534","name":"Carvel","lat":40.700476986541155,"lng":-73.90049369691944,"address":"58-24 Myrtle Ave, Ridgewood, NY 11385","rating":"","url":"http://www.carvel.com","froyo":false,"chain":true},{"source":"foursquare","id":"4bef4087ea570f47e4248fd2","name":"Carvel","lat":40.745436069548305,"lng":-73.90591368462651,"address":"58-26 Roosevelt Avenue, Woodside, NY 11377","rating":"","url":"http://www.carvel.com","froyo":false,"chain":true},{"source":"foursquare","id":"509aaaa46ebbda87a3c403a3","name":"Carvel","lat":40.66741306,"lng":-73.97783245,"address":"625 8th Avenue, New York, NY 10036","rating":"","url":"http://www.carvel.com","froyo":false,"chain":true},{"source":"yelp","id":"carvel-brooklyn-9","name":"Carvel","lat":40.613728,"lng":-73.981895,"address":"6510 Bay Parkway, Brooklyn, NY 11204","rating":4,"url":"http://www.yelp.com/biz/carvel-brooklyn-9","froyo":false,"chain":true},{"source":"foursquare","id":"509aaaa46ebbda87a3c403e1","name":"Carvel","lat":40.64353537745382,"lng":-74.0041074830379,"address":"65-10 Bay Pkwy, Brooklyn, NY 11204","rating":"","url":"http://www.carvel.com","froyo":false,"chain":true},{"source":"foursquare","id":"4babecfbf964a520f3d53ae3","name":"Carvel","lat":40.63227898168914,"lng":-74.02293462135181,"address":"6924 5th Ave, Brooklyn, NY 11209","rating":"","url":"http://www.carvel.com","froyo":false,"chain":true},{"source":"yelp","id":"carvel-ice-cream-brooklyn-4","name":"Carvel","lat":40.6309204,"lng":-74.0276794,"address":"7517 3rd Ave, Brooklyn, NY 11209","rating":4,"url":"http://www.yelp.com/biz/carvel-ice-cream-brooklyn-4","froyo":false,"chain":true},{"source":"yelp","id":"carvel-ice-cream-east-elmhurst","name":"Carvel","lat":40.7587395,"lng":-73.8920059,"address":"7563 31st Ave, East Elmhurst, NY 11370","rating":3,"url":"http://www.yelp.com/biz/carvel-ice-cream-east-elmhurst","froyo":false,"chain":true},{"source":"foursquare","id":"4c54944930f92d7fe875b4ba","name":"Carvel","lat":40.760138688960716,"lng":-73.8918524094735,"address":"75-65 31st Avenue, East Elmhurst, NY 11370","rating":"","url":"http://www.carvel.com","froyo":false,"chain":true},{"source":"foursquare","id":"4b9158c7f964a5200db533e3","name":"Carvel","lat":40.747525517047315,"lng":-73.88435341450321,"address":"81-07 Roosevelt Ave, Jackson Heights, NY 11372","rating":7.4,"url":"http://www.carvel.com","froyo":false,"chain":true},{"source":"yelp","id":"carvel-cinnabon-brooklyn","name":"Carvel","lat":40.623142,"lng":-74.031471,"address":"8612 3rd Ave, Brooklyn, NY 11209","rating":4.5,"url":"http://www.yelp.com/biz/carvel-cinnabon-brooklyn","froyo":false,"chain":true},{"source":"foursquare","id":"5159fa30e4b0bfa88af347be","name":"Carvel","lat":40.73707760260357,"lng":-73.87737093728867,"address":"86-51 Broadway, Elmhurst, NY 11373","rating":"","url":"","froyo":false,"chain":true},{"source":"foursquare","id":"509aaaa46ebbda87a3c403f3","name":"Carvel","lat":40.748589212192265,"lng":-73.86973931048732,"address":"95-35 40th Road, Queens, NY 11373, USA","rating":"","url":"http://www.carvel.com","froyo":false,"chain":true},{"source":"foursquare","id":"5384d386498e4caf748ff9de","name":"Carvel","lat":40.704993536749775,"lng":-74.01340938856728,"address":"9 Broadway, New York, NY 10004","rating":"","url":"http://www.carvel.com","froyo":false,"chain":true},{"source":"foursquare","id":"509aaaa46ebbda87a3c403a2","name":"Carvel","lat":40.70307,"lng":-73.95698,"address":"Penn Station Plaza, Long Island Railroad Concourse, New York, NY 10001","rating":"","url":"http://www.carvel.com","froyo":false,"chain":true},{"source":"yelp","id":"cayotea-elmhurst","name":"CayoTea","lat":40.7408295,"lng":-73.8801193,"address":"83-02 Broadway, Elmhurst, NY 11373","rating":3,"url":"http://www.yelp.com/biz/cayotea-elmhurst","froyo":false,"chain":false},{"source":"yelp","id":"cedars-pastry-brooklyn","name":"Cedars Pastry","lat":40.6316528320312,"lng":-74.0220718383789,"address":"7204 5th Ave, Brooklyn, NY 11209","rating":4.5,"url":"http://www.yelp.com/biz/cedars-pastry-brooklyn","froyo":false,"chain":false},{"source":"foursquare","id":"4b8f3bddf964a520cb4e33e3","name":"Ice Cream Center","lat":40.636558852606484,"lng":-73.99024846956436,"address":"4511 13th Ave (46 st), Brooklyn, NY 11219","rating":"","url":"","froyo":false,"chain":false},{"source":"yelp","id":"cherry-wave-middle-village","name":"Cherry Wave","lat":40.7248580520596,"lng":-73.8794044684411,"address":"79-20 Eliot Ave, Middle Village, NY 11379","rating":5,"url":"http://www.yelp.com/biz/cherry-wave-middle-village","froyo":false,"chain":false},{"source":"yelp","id":"chillbox-new-york","name":"Chillbox","lat":40.761886,"lng":-73.965744,"address":"204 E 60th St, New York, NY 10022","rating":4.5,"url":"http://www.yelp.com/biz/chillbox-new-york","froyo":false,"chain":false},{"source":"yelp","id":"chloes-soft-serve-fruit-company-new-york","name":"Chloe's Soft Serve Fruit Company","lat":40.7372894,"lng":-73.9904175,"address":"25 E 17th St, New York, NY 10003","rating":4,"url":"http://www.yelp.com/biz/chloes-soft-serve-fruit-company-new-york","froyo":false,"chain":false},{"source":"yelp","id":"chobani-soho-new-york","name":"Chobani SoHo","lat":40.7256895490098,"lng":-74.0010523796082,"address":"152 Prince St, New York, NY 10012","rating":4.5,"url":"http://www.yelp.com/biz/chobani-soho-new-york","froyo":false,"chain":false},{"source":"yelp","id":"chocolate-works-new-york-3","name":"Chocolate Works","lat":40.78368,"lng":-73.9527206,"address":"1410 Lexington Ave, New York, NY 10128","rating":5,"url":"http://www.yelp.com/biz/chocolate-works-new-york-3","froyo":false,"chain":false},{"source":"foursquare","id":"52f85216498ec03f248f80c3","name":"Chocolicious","lat":40.7077265,"lng":-73.9615068,"address":"175 Division Ave (Lee), Brooklyn, NY 11211","rating":"","url":"http://www.chocoliciousny.com","froyo":false,"chain":false},{"source":"yelp","id":"chocolicious-gelato-ice-cream-brooklyn","name":"Chocolicious Gelato ICE Cream","lat":40.6995506,"lng":-73.9540024,"address":"525 Flushing Ave, Brooklyn, NY 11205","rating":4.5,"url":"http://www.yelp.com/biz/chocolicious-gelato-ice-cream-brooklyn","froyo":false,"chain":false},{"source":"yelp","id":"cinnabon-new-york-4","name":"Cinnabon","lat":40.7515869,"lng":-73.9924164,"address":"1 Penn Plz, New York, NY 10119","rating":4.5,"url":"http://www.yelp.com/biz/cinnabon-new-york-4","froyo":false,"chain":false},{"source":"yelp","id":"cinnabon-brooklyn","name":"Cinnabon","lat":40.610662,"lng":-73.92104,"address":"5174 Kings Plz, Brooklyn, NY 11234","rating":1,"url":"http://www.yelp.com/biz/cinnabon-brooklyn","froyo":false,"chain":false},{"source":"foursquare","id":"3fd66200f964a520b7e71ee3","name":"Circo","lat":40.76355998424306,"lng":-73.97907972335815,"address":"120 W 55th St (btwn. 6th & 7th Aves.), New York, NY 10019","rating":8,"url":"http://www.circonyc.com/index.html","froyo":false,"chain":false},{"source":"yelp","id":"yogurt-city-new-york-3","name":"Yogurt City","lat":40.7135141640902,"lng":-73.9972081035376,"address":"18 E Broadway, New York, NY 10002","rating":3.5,"url":"http://www.yelp.com/biz/yogurt-city-new-york-3","froyo":true,"chain":false},{"source":"yelp","id":"yogurt-city-new-york-6","name":"Yogurt City","lat":40.617296,"lng":-73.99243,"address":"6812 18th Ave, New York, NY 11204","rating":4,"url":"http://www.yelp.com/biz/yogurt-city-new-york-6","froyo":true,"chain":false},{"source":"nyc-inspections","id":"yogurtcity682arthurkillroad","name":"YOGURT CITY","lat":40.559529,"lng":-74.1641406,"address":"682 ARTHUR KILL ROAD, NY, NY 10308","rating":"13","url":"","froyo":true,"chain":false},{"source":"yelp","id":"city-gourmet-market-new-york","name":"City Gourmet Market","lat":40.747568,"lng":-73.996426,"address":"338 8th Ave, New York, NY 10001","rating":4,"url":"http://www.yelp.com/biz/city-gourmet-market-new-york","froyo":false,"chain":false},{"source":"yelp","id":"clarkes-standard-new-york","name":"Clarke's Standard","lat":40.7592114,"lng":-73.9706706,"address":"636 Lexington Ave, New York, NY 10022","rating":2.5,"url":"http://www.yelp.com/biz/clarkes-standard-new-york","froyo":false,"chain":false},{"source":"yelp","id":"cocoplum-new-york","name":"CocoPlum","lat":40.7331009,"lng":-73.9995499,"address":"388 6th Ave, New York, NY 10011","rating":3.5,"url":"http://www.yelp.com/biz/cocoplum-new-york","froyo":false,"chain":false},{"source":"yelp","id":"coffee-studio-new-york","name":"Coffee Studio","lat":40.717726573348,"lng":-74.0012454986572,"address":"100 Lafayette St, New York, NY 10013","rating":4.5,"url":"http://www.yelp.com/biz/coffee-studio-new-york","froyo":false,"chain":false},{"source":"foursquare","id":"4b131727f964a520fa9323e3","name":"Cold Stone Creamery","lat":40.68428359424524,"lng":-73.97649750246244,"address":"139 Flatbush Ave (Atlantic Terminal), Brooklyn, NY 11217","rating":8.2,"url":"http://coldstonecreamery.com","froyo":false,"chain":true},{"source":"nyc-inspections","id":"coldstonecreamery15714crossbayboulevard","name":"COLD STONE CREAMERY","lat":40.6619765,"lng":-73.8410023,"address":"15714 CROSSBAY BOULEVARD, NY, NY 11414","rating":"55","url":"","froyo":false,"chain":true},{"source":"nyc-inspections","id":"coldstonecreamery17660unionturnpike","name":"COLD STONE CREAMERY","lat":40.7257013,"lng":-73.790688,"address":"17660 UNION TURNPIKE, NY, NY 11366","rating":"10","url":"","froyo":false,"chain":true},{"source":"nyc-inspections","id":"coldstonecreamery2341richmondavenue","name":"COLD STONE CREAMERY","lat":40.5908495,"lng":-74.1645272,"address":"2341 RICHMOND AVENUE, NY, NY 10314","rating":"9","url":"","froyo":false,"chain":true},{"source":"foursquare","id":"4e4cac4ebd413c4cc66b3ac8","name":"Cold Stone Creamery","lat":40.70491135264516,"lng":-73.91853868575814,"address":"2 Astor Pl, New York, NY 10003","rating":"","url":"http://www.coldstonecreamery.com","froyo":false,"chain":true},{"source":"nyc-inspections","id":"coldstonecreamery3165harknessave","name":"COLD STONE CREAMERY","lat":40.5867473,"lng":-73.929203,"address":"3165 HARKNESS AVE, NY, NY 11235","rating":"6","url":"","froyo":false,"chain":true},{"source":"foursquare","id":"5553af1c498e46b8555e2ad6","name":"Cold Stone Creamery","lat":40.74758285115547,"lng":-73.9820473643095,"address":"62 E 34th St (btwn Park & Madison), New York, NY 10016","rating":"","url":"http://coldstonecreamery.com","froyo":false,"chain":true},{"source":"nyc-inspections","id":"coldstonecreamery7corsonave","name":"COLD STONE CREAMERY","lat":40.63838579999999,"lng":-74.0791899,"address":"7 CORSON AVE, NY, NY 10301","rating":"12","url":"","froyo":false,"chain":true},{"source":"nyc-inspections","id":"coldstonecreamery8028cooperavenue","name":"COLD STONE CREAMERY","lat":40.7062997,"lng":-73.8755015,"address":"8028 COOPER AVENUE, NY, NY 11385","rating":"54","url":"","froyo":false,"chain":true},{"source":"foursquare","id":"4bdca852ccf52d7f60c3786d","name":"Cold Stone Creamery","lat":40.70845660678791,"lng":-73.86809695017759,"address":"80-28 Cooper Ave (The Shops at Atlas Park), Glendale, NY 11385","rating":7.4,"url":"http://www.coldstonecreamery.com","froyo":false,"chain":true},{"source":"foursquare","id":"4dc1a4867d8bf48713c78a5e","name":"Coldstone","lat":40.67329047288885,"lng":-73.92224737535358,"address":"855 Belmont Ave, Brooklyn, NY 11208","rating":"","url":"","froyo":false,"chain":true},{"source":"foursquare","id":"4b8fbf45f964a5201b6033e3","name":"Cold Stone Creamery","lat":40.73525876698632,"lng":-73.87490272521973,"address":"8801 Queens Blvd (56th Ave.), Elmhurst, NY 11373","rating":6.9,"url":"http://www.coldstonecreamery.com","froyo":false,"chain":true},{"source":"foursquare","id":"4085b980f964a52087f21ee3","name":"Cold Stone Creamery / Tim Hortons","lat":40.756829716569506,"lng":-73.98887686054155,"address":"253 W 42nd St (btwn 7th & 8th Ave), New York, NY 10036","rating":7.1,"url":"http://www.timhortons.com","froyo":false,"chain":true},{"source":"yelp","id":"columbo-yogurt-new-york","name":"Columbo Yogurt","lat":40.7497177,"lng":-73.9917374,"address":"2 Penn Plz, New York, NY 10121","rating":4,"url":"http://www.yelp.com/biz/columbo-yogurt-new-york","froyo":true,"chain":false},{"source":"yelp","id":"yogurt-and-company-flushing","name":"Yogurt & Company","lat":40.7021294,"lng":-73.880867,"address":"70-03 Myrtle Ave, Flushing, NY 11385","rating":4.5,"url":"http://www.yelp.com/biz/yogurt-and-company-flushing","froyo":true,"chain":false},{"source":"manual","id":"cones-new-york","name":"Cones","lat":40.731562,"lng":-74.0033923,"address":"272 Bleecker Street","rating":"","url":"","froyo":false,"chain":false},{"source":"foursquare","id":"51d5cf02498ec155357ff1e1","name":"Cones Caf√©","lat":40.704721,"lng":-74.003182,"address":"78 South St (Pier 15), New York, NY 10038","rating":"","url":"http://conescafe.com","froyo":false,"chain":false},{"source":"nyc-inspections","id":"coneyscones1023boardwalkw","name":"CONEY'S CONES","lat":40.5732642,"lng":-73.9791418,"address":"1023 BOARDWALK W, NY, NY 11224","rating":"5","url":"","froyo":false,"chain":false},{"source":"yelp","id":"coolhaus-stoop-stand-zitos-park-slope-brooklyn","name":"Coolhaus Stoop Stand @ Zito's - Park Slope","lat":40.676655,"lng":-73.979965,"address":"195 - 5th Ave, Brooklyn, NY 11217","rating":2.5,"url":"http://www.yelp.com/biz/coolhaus-stoop-stand-zitos-park-slope-brooklyn","froyo":false,"chain":false},{"source":"nyc-inspections","id":"coolice1872victoryboulevard","name":"COOL ICE","lat":40.612596,"lng":-74.126328,"address":"1872 VICTORY BOULEVARD, NY, NY 10314","rating":"12","url":"","froyo":false,"chain":false},{"source":"foursquare","id":"4fb55568e4b0437283bfa8d8","name":"Coquito Man","lat":40.84426,"lng":-73.881664,"address":"2096 Daly Avenue, Bronx, NY 10460, USA","rating":"","url":"","froyo":false,"chain":false},{"source":"yelp","id":"corner-bakery-new-york","name":"Corner Bakery","lat":40.7830698788166,"lng":-73.9508112519979,"address":"1659 Third Ave., New York, NY 10128","rating":3.5,"url":"http://www.yelp.com/biz/corner-bakery-new-york","froyo":false,"chain":false},{"source":"foursquare","id":"4da4d8f1a86ed93def2b5b8b","name":"Corner Deli","lat":40.83321652903749,"lng":-73.85132226744496,"address":"2208 Newbold Ave, Bronx, NY 10462","rating":"","url":"","froyo":false,"chain":false},{"source":"foursquare","id":"548a2d2b498e7fcddf205474","name":"Corner of Vermont","lat":40.671260226609725,"lng":-73.98465293186112,"address":"374 5th Ave (6th St), Brooklyn, NY 11215","rating":8.4,"url":"","froyo":false,"chain":false},{"source":"nyc-inspections","id":"yogurtcouture21267a26thave","name":"YOGURT COUTURE","lat":40.7789643,"lng":-73.77689140000001,"address":"21267A 26TH AVE, NY, NY 11360","rating":"3","url":"","froyo":true,"chain":false},{"source":"yelp","id":"culture-an-american-yogurt-company-brooklyn-2","name":"Culture An American Yogurt Company","lat":40.672321,"lng":-73.983383,"address":"331 5th Ave, Brooklyn, NY 11215","rating":4.5,"url":"http://www.yelp.com/biz/culture-an-american-yogurt-company-brooklyn-2","froyo":true,"chain":false},{"source":"foursquare","id":"50fdc581d63ec83e0b170f5d","name":"Culture An American Yogurt Company","lat":40.73345397306165,"lng":-73.99920701980591,"address":"60 W 8th St (6th Ave. & MacDougal), New York, NY 10011","rating":7.5,"url":"http://www.cultureny.com","froyo":true,"chain":false},{"source":"yelp","id":"cup-o-yogurt-brooklyn","name":"Cup O Yogurt","lat":40.6021624431801,"lng":-73.9937240001233,"address":"8512 Bay Pkwy, Brooklyn, NY 11214","rating":4,"url":"http://www.yelp.com/biz/cup-o-yogurt-brooklyn","froyo":true,"chain":false},{"source":"nyc-inspections","id":"cupsandcones11000rockawayboulevard","name":"CUPS AND CONES","lat":40.6745378,"lng":-73.80327969999999,"address":"11000 ROCKAWAY BOULEVARD, NY, NY 11420","rating":"6","url":"","froyo":false,"chain":false},{"source":"yelp","id":"dairy-queen-flushing-2","name":"Dairy Queen","lat":40.7506208182916,"lng":-73.8701573103342,"address":"37-39 Junction Blvd, Flushing, NY 11368","rating":4,"url":"http://www.yelp.com/biz/dairy-queen-flushing-2","froyo":false,"chain":true},{"source":"yelp","id":"dairy-queen-bronx","name":"Dairy Queen","lat":40.87069,"lng":-73.828497,"address":"Mall At Bay Plz,NE Corner I-95 & Huthinson River Pkwy, Bronx, NY 10475","rating":1.5,"url":"http://www.yelp.com/biz/dairy-queen-bronx","froyo":false,"chain":true},{"source":"foursquare","id":"532b56f4498eb536addb0a49","name":"Dairy Queen Grill & Chill","lat":40.736876,"lng":-73.996194,"address":"54 W 14th St (btwn 5th & 6th Ave), New York, NY 10011","rating":7.4,"url":"http://www.dairyqueen.com","froyo":false,"chain":true},{"source":"foursquare","id":"518ad7d1454aeee512a0f518","name":"Davey's Ice Cream","lat":40.727836035375304,"lng":-73.98525953292847,"address":"137 1st Ave (St Marks Pl & 9th St), New York, NY 10003","rating":9.3,"url":"http://www.daveysicecream.com","froyo":false,"chain":false},{"source":"foursquare","id":"553bf653498eba55ec0bdfde","name":"Davey's Ice Cream","lat":40.71699109874833,"lng":-73.95840793848038,"address":"201 Bedford Ave (North 5th & 6th St), Brooklyn, NY 11211","rating":"","url":"http://www.daveysicecream.com","froyo":false,"chain":false},{"source":"yelp","id":"delicioso-coco-helado-new-york","name":"Delicioso Coco Helado","lat":40.7946892,"lng":-73.9718933,"address":"SE Corner of 96th and Broadway, New York, NY 10025","rating":4,"url":"http://www.yelp.com/biz/delicioso-coco-helado-new-york","froyo":false,"chain":false},{"source":"yelp","id":"deliciouso-coco-helado-new-york","name":"Deliciouso Coco Helado","lat":40.8223320543766,"lng":-73.9094080030918,"address":"898 St. Ann's Ave, New York, NY 10456","rating":3,"url":"http://www.yelp.com/biz/deliciouso-coco-helado-new-york","froyo":false,"chain":false},{"source":"yelp","id":"dessert-club-chikalicious-new-york-9","name":"Dessert Club, ChikaLicious","lat":40.729438,"lng":-73.986361,"address":"204 E 10th St, New York, NY 10003","rating":4,"url":"http://www.yelp.com/biz/dessert-club-chikalicious-new-york-9","froyo":false,"chain":false},{"source":"nyc-inspections","id":"dfmavens37saintmarkspl","name":"DF MAVENS","lat":40.7288765,"lng":-73.9880604,"address":"37 SAINT MARKS PL, NY, NY 10003","rating":"24","url":"","froyo":false,"chain":false},{"source":"yelp","id":"diet-lite-ice-cream-new-york","name":"Diet Lite Ice-Cream","lat":40.736225,"lng":-73.988716,"address":"44 Union Square East, New York, NY 10003","rating":3,"url":"http://www.yelp.com/biz/diet-lite-ice-cream-new-york","froyo":false,"chain":false},{"source":"nyc-inspections","id":"dippindots7675avenue","name":"DIPPIN DOTS","lat":40.7635573,"lng":-73.9723018,"address":"767 5 AVENUE, NY, NY 10153","rating":"2","url":"","froyo":false,"chain":false},{"source":"nyc-inspections","id":"dippingdots2300southernblvd","name":"DIPPING DOTS","lat":40.8502883,"lng":-73.8786113,"address":"2300 SOUTHERN BLVD, NY, NY 10460","rating":"2","url":"","froyo":false,"chain":false},{"source":"yelp","id":"disfruta-new-york","name":"DisFruta","lat":40.8647141770114,"lng":-73.9193425700068,"address":"510 W 207th St, New York, NY 10034","rating":4,"url":"http://www.yelp.com/biz/disfruta-new-york","froyo":false,"chain":false},{"source":"foursquare","id":"51e9fa20498e8877b902cf22","name":"Dolce Gelateria","lat":40.73240915779692,"lng":-74.0034188600798,"address":"33 Barrow St (at 7th Ave), New York, NY 10014","rating":8.7,"url":"http://dolce-sweetness.com","froyo":false,"chain":false},{"source":"nyc-inspections","id":"dolcesweetness33barrowst","name":"DOLCE SWEETNESS","lat":40.7322868,"lng":-74.0032653,"address":"33 BARROW ST, NY, NY 10014","rating":"","url":"","froyo":false,"chain":false},{"source":"yelp","id":"dolce-vida-frozen-yogurt-and-crepe-boutique-new-york","name":"Dolce Vida Frozen Yogurt & Crepe Boutique","lat":40.868164,"lng":-73.91848,"address":"4996 Broadway, New York, NY 10034","rating":4.5,"url":"http://www.yelp.com/biz/dolce-vida-frozen-yogurt-and-crepe-boutique-new-york","froyo":true,"chain":false},{"source":"yelp","id":"dollys-ices-brooklyn","name":"Dolly's Ices","lat":40.6154022,"lng":-73.918541,"address":"5805 Avenue T, Brooklyn, NY 11234","rating":4,"url":"http://www.yelp.com/biz/dollys-ices-brooklyn","froyo":false,"chain":false},{"source":"nyc-inspections","id":"dollysitalianices5805avenuet","name":"DOLLY'S ITALIAN ICES","lat":40.6154835,"lng":-73.9185785,"address":"5805 AVENUE T, NY, NY 11234","rating":"","url":"","froyo":false,"chain":false},{"source":"yelp","id":"dominican-flavor-bronx","name":"Dominican Flavor","lat":40.8524399,"lng":-73.9090424,"address":"1975 Jerome Avenue, Bronx, NY 10453","rating":5,"url":"http://www.yelp.com/biz/dominican-flavor-bronx","froyo":false,"chain":false},{"source":"yelp","id":"dominique-ansel-bakery-new-york","name":"Dominique Ansel Bakery","lat":40.7252,"lng":-74.002971,"address":"189 Spring St, New York, NY 10012","rating":4,"url":"http://www.yelp.com/biz/dominique-ansel-bakery-new-york","froyo":false,"chain":false},{"source":"nyc-inspections","id":"yogurtdownunder990rossvilleavenue","name":"YOGURT DOWN UNDER","lat":40.5512508,"lng":-74.212501,"address":"990 ROSSVILLE AVENUE, NY, NY 10309","rating":"13","url":"","froyo":true,"chain":false},{"source":"yelp","id":"droga5-thanksgiving-new-york","name":"Droga5 Thanksgiving","lat":40.7282508909702,"lng":-73.9928917586803,"address":"400 Lafayette,4th Floor, New York, NY 10003","rating":3.5,"url":"http://www.yelp.com/biz/droga5-thanksgiving-new-york","froyo":false,"chain":false},{"source":"yelp","id":"d-vine-taste-brooklyn","name":"D' Vine Taste","lat":40.6725677,"lng":-73.9770297,"address":"150 7th Ave, Brooklyn, NY 11215","rating":4.5,"url":"http://www.yelp.com/biz/d-vine-taste-brooklyn","froyo":false,"chain":false},{"source":"yelp","id":"east-harlem-icys-and-ice-cream-manhattan","name":"East Harlem Icys and Ice Cream","lat":40.7942352,"lng":-73.9394531,"address":"300 E 112th St, Manhattan, NY 10029","rating":4,"url":"http://www.yelp.com/biz/east-harlem-icys-and-ice-cream-manhattan","froyo":false,"chain":false},{"source":"yelp","id":"eddies-sweet-shop-forest-hills-2","name":"Eddie's Sweet Shop","lat":40.7100906,"lng":-73.8472824,"address":"105-29 Metropolitan Ave, Forest Hills, NY 11375","rating":4,"url":"http://www.yelp.com/biz/eddies-sweet-shop-forest-hills-2","froyo":false,"chain":false},{"source":"foursquare","id":"4b9410b8f964a520676534e3","name":"Edy's","lat":40.70545184930279,"lng":-74.00138166932388,"address":"Seaport Mall, New York, NY 10038","rating":"","url":"","froyo":false,"chain":false},{"source":"nyc-inspections","id":"eggersicecreamparlor1194forestavenue","name":"EGGER'S ICE CREAM PARLOR","lat":40.6264756,"lng":-74.1296886,"address":"1194 FOREST AVENUE, NY, NY 10310","rating":"9","url":"","froyo":false,"chain":false},{"source":"nyc-inspections","id":"eggersicecreamparlor6319amboyrd","name":"EGGERS ICE CREAM PARLOR","lat":40.5234038,"lng":-74.2162673,"address":"6319 AMBOY RD, NY, NY 10309","rating":"9","url":"","froyo":false,"chain":false},{"source":"foursquare","id":"4bde1985ffdec928e2c0e7a1","name":"El Palacio De Los Cholados","lat":40.755677819252014,"lng":-73.8838322,"address":"83-18 Northern Blvd (Btwn 83rd and 84th sts), Jackson Heights, NY 11372","rating":7.9,"url":"","froyo":false,"chain":false},{"source":"foursquare","id":"55722e3c498e9ea78b09f663","name":"Elsie's Parlor","lat":40.67738760399811,"lng":-73.95881378352735,"address":"667 Classon Ave (Bergen St), Brooklyn, NY 11238","rating":8.7,"url":"http://elsiesgoods.com","froyo":false,"chain":false},{"source":"foursquare","id":"49f3daf9f964a520e86a1fe3","name":"Emack and Bolio's Ice Cream","lat":40.782975,"lng":-73.978537,"address":"389 Amsterdam Ave (78th St & 79th St), New York, NY 10024","rating":8.6,"url":"http://www.emackandbolios.com","froyo":false,"chain":false},{"source":"foursquare","id":"4a6fa830f964a520bad61fe3","name":"Emack & Bolio's Ice Cream","lat":40.77387897426122,"lng":-73.95170769751562,"address":"1564 1st Ave, New York, NY 10028","rating":9.2,"url":"http://emackandbolios.com","froyo":false,"chain":false},{"source":"yelp","id":"everything-yogurt-brooklyn","name":"Everything Yogurt","lat":40.6108217686415,"lng":-73.920704126358,"address":"5371 Kings Plz, Brooklyn, NY 11234","rating":4,"url":"http://www.yelp.com/biz/everything-yogurt-brooklyn","froyo":true,"chain":false},{"source":"nyc-inspections","id":"everythingyogurtgretelspretzels5371kingsplazamall","name":"EVERYTHING YOGURT/GRETEL'S PRETZELS","lat":40.6740089,"lng":-74.00026199999999,"address":"5371 KINGS PLAZA MALL, NY, NY 11234","rating":"7","url":"","froyo":true,"chain":false},{"source":"foursquare","id":"4df411613151247c51b02e6f","name":"Fatty Snack","lat":40.701967892353245,"lng":-74.01560068130493,"address":"Battery Park, New York, NY","rating":"","url":"","froyo":false,"chain":false},{"source":"manual","id":"ferrara-bakery-and-cafe-new-york","name":"Ferrara Bakery & Cafe","lat":40.7190764,"lng":-73.9970864,"address":"195 Grand Street","rating":"","url":"","froyo":false,"chain":false},{"source":"yelp","id":"flatiron-green-cafe-new-york","name":"Flatiron Green Cafe","lat":40.7410785285693,"lng":-73.9891710221159,"address":"Flatiron Public Plz S, New York, NY 10010","rating":4,"url":"http://www.yelp.com/biz/flatiron-green-cafe-new-york","froyo":false,"chain":false},{"source":"yelp","id":"flora-sweet-house-queens","name":"Flora Sweet House","lat":40.7573433,"lng":-73.8341904,"address":"4024 College Point Blvd,Ste B219, Queens, NY 11354","rating":4,"url":"http://www.yelp.com/biz/flora-sweet-house-queens","froyo":false,"chain":false},{"source":"nyc-inspections","id":"fmdesserts14008hollyavenue","name":"FM DESSERTS","lat":40.75079830000001,"lng":-73.818818,"address":"140-08 HOLLY AVENUE, NY, NY 11355","rating":"32","url":"","froyo":false,"chain":false},{"source":"foursquare","id":"4deeceac091a6eb8df4ef389","name":"Fort Grace","lat":40.689584,"lng":-73.970194,"address":"229 Dekalb Ave (at Clermont Ave.), Brooklyn, NY 11205","rating":7.7,"url":"","froyo":false,"chain":false},{"source":"foursquare","id":"556a057b498e61c8e4bf1709","name":"Fort Grace Local","lat":40.687416076660156,"lng":-73.9600601196289,"address":"Greene Ave (Classon And Greene Ave), Brooklyn, NY","rating":"","url":"","froyo":false,"chain":false},{"source":"foursquare","id":"4b0300cef964a520cc4b22e3","name":"Fortunata's II","lat":40.701567746842855,"lng":-73.9233955621207,"address":"305 Knickerbocker Ave, Brooklyn, NY 11237","rating":6.2,"url":"","froyo":false,"chain":false},{"source":"manual","id":"fortunato-brothers-brooklyn","name":"Fortunato Brothers","lat":40.7118872,"lng":-73.9582632,"address":"289 Manhattan Avenue","rating":"","url":"http://www.fortunatobrothers.com/","froyo":false,"chain":false},{"source":"yelp","id":"forty-carrots-new-york-2","name":"Forty Carrots","lat":40.7618071710526,"lng":-73.9669564638492,"address":"141-199 E 59th St, New York, NY 10022","rating":4,"url":"http://www.yelp.com/biz/forty-carrots-new-york-2","froyo":false,"chain":false},{"source":"yelp","id":"forty-carrots-new-york-3","name":"Forty Carrots","lat":40.7220306,"lng":-73.9988632,"address":"504 Broadway,2nd Fl, New York, NY 10012","rating":4,"url":"http://www.yelp.com/biz/forty-carrots-new-york-3","froyo":false,"chain":false},{"source":"foursquare","id":"5019dc2ae4b08e6db01d1514","name":"Fresco Gelateria","lat":40.72886860074364,"lng":-73.98738384246826,"address":"138 2nd Ave (btwn E 8th & E 9th St), New York, NY 10003","rating":9,"url":"http://www.frescogelateria.com","froyo":false,"chain":false},{"source":"nyc-inspections","id":"freshmojoilla13620rooseveltavenue","name":"FRESH MOJOILLA","lat":40.7593211,"lng":-73.8290528,"address":"13620 ROOSEVELT AVENUE, NY, NY 11354","rating":"10","url":"","froyo":false,"chain":false},{"source":"yelp","id":"fresko-astoria-2","name":"Fresk'o","lat":40.7667313,"lng":-73.9205475,"address":"31-19 30th Ave, Astoria, NY 11102","rating":4.5,"url":"http://www.yelp.com/biz/fresko-astoria-2","froyo":false,"chain":false},{"source":"nyc-inspections","id":"froyotogo1757arthurkillroad","name":"FRO YO TO GO","lat":40.559734,"lng":-74.1973,"address":"1757 ARTHUR KILL ROAD, NY, NY 10312","rating":"5","url":"","froyo":true,"chain":false},{"source":"yelp","id":"frozfruit-brooklyn","name":"Frozfruit","lat":40.6228446960449,"lng":-73.9753112792969,"address":"1241 McDonald Ave, Brooklyn, NY 11230","rating":3,"url":"http://www.yelp.com/biz/frozfruit-brooklyn","froyo":false,"chain":false},{"source":"yelp","id":"fruitti-yummi-corona","name":"Fruitti Yummi","lat":40.7498874671737,"lng":-73.8625555277798,"address":"40-99 National St, Corona, NY 11368","rating":3,"url":"http://www.yelp.com/biz/fruitti-yummi-corona","froyo":false,"chain":false},{"source":"yelp","id":"fruitti-yummi-frozen-yogurt-ridgewood","name":"Fruitti Yummi Frozen Yogurt","lat":40.7004473628379,"lng":-73.9014827976126,"address":"57-51 Myrtle Ave, Ridgewood, NY 11385","rating":4,"url":"http://www.yelp.com/biz/fruitti-yummi-frozen-yogurt-ridgewood","froyo":true,"chain":false},{"source":"nyc-inspections","id":"fruttiyummi444knickerbockerave","name":"FRUTTI YUMMI","lat":40.6991548,"lng":-73.9189995,"address":"444 KNICKERBOCKER AVE, NY, NY 11237","rating":"10","url":"","froyo":false,"chain":false},{"source":"nyc-inspections","id":"funkiberry1917kingshwy","name":"FUNKIBERRY","lat":40.610662,"lng":-73.954157,"address":"1917 KINGS HWY, NY, NY 11229","rating":"12","url":"","froyo":false,"chain":false},{"source":"yelp","id":"gabi-juice-bar-morris-heights","name":"Gabi Juice Bar","lat":40.8537102,"lng":-73.9082794,"address":"14A W Burnside Ave, Morris Heights, NY 10453","rating":3.5,"url":"http://www.yelp.com/biz/gabi-juice-bar-morris-heights","froyo":false,"chain":false},{"source":"foursquare","id":"543dca6e498eaf92fec56bc2","name":"Gantry Cafe","lat":40.744299163677475,"lng":-73.95435385541136,"address":"5-49 48th Avenue, Long Island City, NY 11101, USA","rating":"","url":"","froyo":false,"chain":false},{"source":"nyc-inspections","id":"gardenmarket16handles4pennsylvaniaplaza","name":"Garden Market/ 16 Handles","lat":40.7507042,"lng":-73.9937515,"address":"4 PENNSYLVANIA PLAZA, NY, NY 10001","rating":"0","url":"","froyo":false,"chain":true},{"source":"manual","id":"gastronomie-491-new-york","name":"Gastronomie 491","lat":40.7848901,"lng":-73.9731103,"address":"491 Columbus Avenue","rating":"","url":"http://www.gastronomie491.com/","froyo":false,"chain":false},{"source":"foursquare","id":"4de16f1252b1d38d2955fd62","name":"Gelateria @ Eataly","lat":40.74221733386824,"lng":-73.99002313613892,"address":"200 5th Ave (at W 23rd St), New York, NY 10010","rating":8.6,"url":"http://www.eataly.com","froyo":false,"chain":false},{"source":"foursquare","id":"5143955ee4b0dfd2c5cb4827","name":"Gelateria Vivoli","lat":40.750373898125716,"lng":-73.98721255191126,"address":"Macys 6th Flr (151 35th St.), New York, NY 10001","rating":6.8,"url":"","froyo":false,"chain":false},{"source":"foursquare","id":"54a81ee0498e98a20248bdc9","name":"Gelato Giusto NYC","lat":40.74457151770753,"lng":-74.0026728490794,"address":"164 9th Ave (20th Street), New York, NY 10011","rating":"","url":"http://www.gelatogiustony.com","froyo":false,"chain":false},{"source":"foursquare","id":"517ad563e4b0f247c19a7c12","name":"Gelato Ti Amo","lat":40.709982708989294,"lng":-74.009094186998,"address":"12 John St (btwn Broadway & Nassau), New York, NY 10038","rating":7.7,"url":"http://gelatotiamo.it","froyo":false,"chain":false},{"source":"yelp","id":"gel-otto-new-york","name":"Gel-Otto","lat":40.7321288004064,"lng":-73.9985525608063,"address":"Washington Square North and Washington Square West, New York, NY 10003","rating":3.5,"url":"http://www.yelp.com/biz/gel-otto-new-york","froyo":false,"chain":false},{"source":"yelp","id":"gem-spa-new-york","name":"Gem Spa","lat":40.728588,"lng":-73.988083,"address":"131 2nd Ave, New York, NY 10003","rating":4,"url":"http://www.yelp.com/biz/gem-spa-new-york","froyo":false,"chain":false},{"source":"yelp","id":"gerizim-cafe-and-ice-cream-brooklyn","name":"Gerizim Cafe & Ice Cream","lat":40.669996663928,"lng":-73.9225327223539,"address":"560 Ralph Ave, Brooklyn, NY 11233","rating":5,"url":"http://www.yelp.com/biz/gerizim-cafe-and-ice-cream-brooklyn","froyo":false,"chain":false},{"source":"foursquare","id":"4d64546736a96dcb92fb4df4","name":"Glida","lat":40.63466018066707,"lng":-73.99219969562924,"address":"4907 13th Ave, Brooklyn, NY 11219","rating":6.8,"url":"http://zislick.com","froyo":false,"chain":false},{"source":"yelp","id":"go-cups-new-york","name":"Go Cups","lat":40.7834279537201,"lng":-73.9476234465837,"address":"1838 2nd Ave, New York, NY 10128","rating":4.5,"url":"http://www.yelp.com/biz/go-cups-new-york","froyo":false,"chain":false},{"source":"yelp","id":"go-greenly-inwood-new-york","name":"Go Greenly Inwood","lat":40.8662894672251,"lng":-73.9256334204732,"address":"4865 Broadway, New York, NY 10034","rating":4,"url":"http://www.yelp.com/biz/go-greenly-inwood-new-york","froyo":false,"chain":false},{"source":"yelp","id":"golosi-new-york","name":"Golosi","lat":40.7513466,"lng":-73.9778824,"address":"125 Park Ave, New York, NY 10017","rating":3,"url":"http://www.yelp.com/biz/golosi-new-york","froyo":false,"chain":false},{"source":"foursquare","id":"4f298f3a771655080994d9db","name":"Grace Street","lat":40.74772432839529,"lng":-73.9865255355835,"address":"17 W 32nd St (btwn Broadway & 5th Ave), New York, NY 10001","rating":8.6,"url":"http://bygracestreet.com","froyo":false,"chain":false},{"source":"yelp","id":"grazia-bella-new-york","name":"Grazia Bella","lat":40.721385443529,"lng":-73.995462338426,"address":"202 Mott St, New York, NY 10012","rating":3,"url":"http://www.yelp.com/biz/grazia-bella-new-york","froyo":false,"chain":false},{"source":"yelp","id":"greecologies-new-york","name":"Greecologies","lat":40.7202330882667,"lng":-73.9964868578209,"address":"379 Broome St, New York, NY 10013","rating":4.5,"url":"http://www.yelp.com/biz/greecologies-new-york","froyo":false,"chain":false},{"source":"yelp","id":"green-apple-delight-astoria","name":"Green Apple Delight","lat":40.7690043,"lng":-73.9249801,"address":"29-12 Crescent St, Astoria, NY 11102","rating":4.5,"url":"http://www.yelp.com/biz/green-apple-delight-astoria","froyo":false,"chain":false},{"source":"yelp","id":"grk-fresh-greek-midtown-east-new-york","name":"Grk","lat":40.7530784606934,"lng":-73.9745483398438,"address":"451 Lexington Ave, New York, NY 10017","rating":3.5,"url":"http://www.yelp.com/biz/grk-fresh-greek-midtown-east-new-york","froyo":false,"chain":false},{"source":"yelp","id":"grk-fresh-greek-financial-district-new-york","name":"GRK Fresh Greek - Financial District","lat":40.7097830407971,"lng":-74.006883484631,"address":"111 Fulton St, New York, NY 10038","rating":3.5,"url":"http://www.yelp.com/biz/grk-fresh-greek-financial-district-new-york","froyo":false,"chain":false},{"source":"foursquare","id":"4be45cffcf200f4739da113c","name":"Grom","lat":40.767365007244436,"lng":-73.98189814571478,"address":"1796 Broadway (at W 58th St), New York, NY 10019","rating":9.1,"url":"http://grom.it/eng/dettagli_gelateria.php?id_gelateria=107/","froyo":false,"chain":false},{"source":"foursquare","id":"4876271ff964a52012511fe3","name":"Grom","lat":40.730375,"lng":-74.00247395038605,"address":"233 Bleecker St (at Carmine St.), New York, NY 10014","rating":9,"url":"http://www.grom.it/eng","froyo":false,"chain":false},{"source":"foursquare","id":"4af63415f964a520360222e3","name":"Haagen-Dazs","lat":40.673747117167125,"lng":-73.97597522179888,"address":"109 7th Ave (President St & Carroll St), Brooklyn, NY 11215","rating":7.4,"url":"http://haagendazsshoppecompany.com","froyo":false,"chain":true},{"source":"foursquare","id":"4c20e377132f0f471d61a796","name":"Haagen-Dazs","lat":40.76300458820856,"lng":-73.9596116233806,"address":"1188 1st Ave (btwn 64th & 65th St.), New York, NY 10065","rating":6.6,"url":"http://www.haagen-dazs.com","froyo":false,"chain":true},{"source":"foursquare","id":"4b5b84eff964a5203c0429e3","name":"Haagen-Dazs","lat":40.694864,"lng":-73.994475,"address":"120 Montague St (btw Hicks & Henry), Brooklyn, NY 11201","rating":7.5,"url":"http://haagendazs.us","froyo":false,"chain":true},{"source":"yelp","id":"haagen-dazs-shop-new-york-3","name":"Haagen-Dazs","lat":40.7574081,"lng":-73.9851532,"address":"1514 Broadway,Times Square -Toys R Us, New York, NY 10036","rating":3,"url":"http://www.yelp.com/biz/haagen-dazs-shop-new-york-3","froyo":false,"chain":true},{"source":"yelp","id":"haagen-dazs-shop-bronx-2","name":"Haagen-Dazs","lat":40.869359,"lng":-73.825597,"address":"2120 Bartow,Bay Plaza Shopping Center - Same side as Key Foods, Bronx, NY 10475","rating":3,"url":"http://www.yelp.com/biz/haagen-dazs-shop-bronx-2","froyo":false,"chain":true},{"source":"foursquare","id":"4b54ef1df964a520e9d327e3","name":"Haagen-Dazs","lat":40.778797118656954,"lng":-73.98193831996322,"address":"263 Amsterdam Ave (at 72nd St.), New York, NY 10023","rating":7.3,"url":"http://www.haagen-dazs.com","froyo":false,"chain":true},{"source":"foursquare","id":"4a63840bf964a5203ac51fe3","name":"Haagen-Dazs","lat":40.80622866268543,"lng":-73.9650242195783,"address":"2905 Broadway (btw 113th & 114th St), New York, NY 10025","rating":7.4,"url":"http://www.haagendazs.com","froyo":false,"chain":true},{"source":"nyc-inspections","id":"haagendazsbeercart2pennplaza","name":"Haagen-Dazs","lat":40.75007189999999,"lng":-73.9922026,"address":"2 PENN PLAZA, NY, NY 10121","rating":"11","url":"","froyo":false,"chain":true},{"source":"foursquare","id":"4c3631bc0a71c9b667b73cc9","name":"Haagen-Dazs","lat":40.75969264590001,"lng":-73.92709267740238,"address":"3143 Steinway St, Astoria, NY 11103","rating":"","url":"","froyo":false,"chain":true},{"source":"foursquare","id":"5192cbdd498e59ff6f063643","name":"Haagen-Dazs","lat":40.701416662181735,"lng":-74.01276096689261,"address":"4 South St, New York, NY 10004","rating":"","url":"","froyo":false,"chain":true},{"source":"nyc-inspections","id":"haagendazs5172kingsplaza","name":"Haagen-Dazs","lat":40.6099272,"lng":-73.9197405,"address":"5172 KINGS PLAZA, NY, NY 11234","rating":"12","url":"","froyo":false,"chain":true},{"source":"yelp","id":"haagen-dazs-shop-brooklyn-5","name":"Haagen-Dazs","lat":40.6095671653748,"lng":-73.9219801872969,"address":"5172 Kings Plaza,Kings Plaza Mall, Brooklyn, NY 11234","rating":3,"url":"http://www.yelp.com/biz/haagen-dazs-shop-brooklyn-5","froyo":false,"chain":true},{"source":"yelp","id":"haagen-dazs-shop-new-york-6","name":"Haagen-Dazs","lat":40.731205,"lng":-73.9934998,"address":"55C E 8th St, New York, NY 10003","rating":4,"url":"http://www.yelp.com/biz/haagen-dazs-shop-new-york-6","froyo":false,"chain":true},{"source":"foursquare","id":"4dbf3ceacda12687c83026f2","name":"Haagen-Dazs","lat":40.81922978706318,"lng":-73.92690897147251,"address":"573 Grand Concourse, Bronx, NY 10451","rating":"","url":"http://haagendazsshoppecompany.com","froyo":false,"chain":true},{"source":"yelp","id":"haagen-dazs-shop-new-york-11","name":"Haagen-Dazs","lat":40.789639,"lng":-73.973976,"address":"594 Amsterdam Ave, New York, NY 10024","rating":1,"url":"http://www.yelp.com/biz/haagen-dazs-shop-new-york-11","froyo":false,"chain":true},{"source":"nyc-inspections","id":"haagendazs6506statenislandmall","name":"Haagen-Dazs","lat":40.5793341,"lng":-74.1638928,"address":"6506 STATEN ISLAND MALL, NY, NY 10314","rating":"7","url":"","froyo":false,"chain":true},{"source":"yelp","id":"haagen-dazs-shop-forest-hills","name":"Haagen-Dazs","lat":40.7203293,"lng":-73.8456421,"address":"7040 Austin St, Forest Hills, NY 11375","rating":3,"url":"http://www.yelp.com/biz/haagen-dazs-shop-forest-hills","froyo":false,"chain":true},{"source":"foursquare","id":"4b8b35a6f964a520aa9732e3","name":"Haagen-Dazs","lat":40.63052773268411,"lng":-74.02796099826531,"address":"7610 3rd Ave (76th St.), Brooklyn, NY 11209","rating":"","url":"","froyo":false,"chain":true},{"source":"foursquare","id":"4bf3236de5eba593423d1e90","name":"Haagen-Dazs","lat":40.71563882239978,"lng":-73.998552520578,"address":"77 Bayard St, New York, NY 10013","rating":5.5,"url":"http://www.haagendazs.com","froyo":false,"chain":true},{"source":"foursquare","id":"4b9fd357f964a5201b4237e3","name":"Haagen-Dazs","lat":40.706844160459966,"lng":-74.0035451078076,"address":"89 South St (at South Street Seaport), New York, NY 10038","rating":"","url":"http://nycicecream.com","froyo":false,"chain":true},{"source":"foursquare","id":"4e4e395bbd4101d0d7a540ac","name":"Haagen-Dazs","lat":40.73445534218487,"lng":-73.8694234730334,"address":"9015 Queens Blvd (at Queens Center), Elmhurst, NY 11373","rating":"","url":"","froyo":false,"chain":true},{"source":"yelp","id":"haagen-dazs-shop-new-york-4","name":"Haagen-Dazs","lat":40.7515869,"lng":-73.9924164,"address":"One Penn Plaza,New York - Penn Station LIRR Level, New York, NY 10001","rating":3.5,"url":"http://www.yelp.com/biz/haagen-dazs-shop-new-york-4","froyo":false,"chain":true},{"source":"yelp","id":"hamiltons-soda-fountain-and-luncheonette-new-york-2","name":"Hamilton's Soda Fountain & Luncheonette","lat":40.736965882272,"lng":-74.0036474147537,"address":"51 Bank St, New York, NY 10014","rating":2.5,"url":"http://www.yelp.com/biz/hamiltons-soda-fountain-and-luncheonette-new-york-2","froyo":false,"chain":false},{"source":"yelp","id":"hanana-frozen-yogurt-brooklyn-2","name":"Hanana Frozen Yogurt","lat":40.7241487,"lng":-73.9502413,"address":"99 Nassau Ave, Brooklyn, NY 11222","rating":4,"url":"http://www.yelp.com/biz/hanana-frozen-yogurt-brooklyn-2","froyo":true,"chain":false},{"source":"yelp","id":"happy-garden-frozen-yogurt-new-york","name":"Happy Garden Frozen Yogurt","lat":40.6220729293888,"lng":-74.0059829503298,"address":"7202 13th Ave, New York, NY 11228","rating":4.5,"url":"http://www.yelp.com/biz/happy-garden-frozen-yogurt-new-york","froyo":true,"chain":false},{"source":"yelp","id":"hard-times-sundaes-brooklyn","name":"Hard Times Sundaes","lat":40.6131365150213,"lng":-73.9173446595669,"address":"5700 Avenue U, Brooklyn, NY 11234","rating":4.5,"url":"http://www.yelp.com/biz/hard-times-sundaes-brooklyn","froyo":false,"chain":false},{"source":"foursquare","id":"514f891de4b089e31327a95c","name":"Harlem Shake","lat":40.80711675994725,"lng":-73.94601345615861,"address":"100 W 124th St (at Lenox Ave), New York, NY 10027","rating":8.4,"url":"http://www.harlemshakenyc.com","froyo":false,"chain":false},{"source":"foursquare","id":"5359a85e498e4bb8b0decd2b","name":"HarlemYo","lat":40.803570479171256,"lng":-73.95589216915374,"address":"2121 Frederick Douglass Blvd (115th St.), New York, NY 10026","rating":"","url":"","froyo":false,"chain":false},{"source":"foursquare","id":"4fb92949e4b06d1e69e40e33","name":"Health Bliss Bar","lat":40.712536210337674,"lng":-73.94882041665537,"address":"Lorimer & Ainslie, Brooklyn, NY 11211","rating":"","url":"","froyo":false,"chain":false},{"source":"yelp","id":"heartschallenger-new-york","name":"Heartschallenger","lat":40.7255897521973,"lng":-73.997917175293,"address":"Prince St. Station, New York, NY 10012","rating":3,"url":"http://www.yelp.com/biz/heartschallenger-new-york","froyo":false,"chain":false},{"source":"yelp","id":"heavenly-delights-new-york-2","name":"Heavenly Delights","lat":40.763031,"lng":-73.9673996,"address":"World of Nuts & Cream,767 Lexington Avenue, New York, NY 10021","rating":4,"url":"http://www.yelp.com/biz/heavenly-delights-new-york-2","froyo":false,"chain":false},